$GNRMC,203637.00,A,4458.17333,N,09331.05019,W,0.606,,120919,,,A*70

$GNVTG,,T,,M,0.606,N,1.122,K,A*3D

$GNGGA,203637.00,4458.17333,N,09331.05019,W,1,07,1.74,298.5,M,-30.7,M,,*74

$GNGSA,A,3,21,15,10,20,27,,,,,,,,2.87,1.74,2.29*1B

$GNGSA,A,3,67,69,,,,,,,,,,,2.87,1.74,2.29*14

$GPGSV,3,1,12,05,02,080,,10,31,270,22,13,30,048,22,15,63,073,28*73

$GPGSV,3,2,12,16,01,279,,20,57,285,22,21,81,279,28,24,20,136,13*70

$GPGSV,3,3,12,27,23,314,24,29,15,185,18,46,27,225,,51,36,199,*76

$GLGSV,2,1,08,67,38,041,17,68,73,292,,69,27,244,22,76,10,027,*69

$GLGSV,2,2,08,77,09,078,,82,30,166,18,83,76,220,,84,33,326,21*68

$GNGLL,4458.17333,N,09331.05019,W,203637.00,A,A*6B

$GNRMC,203637.20,A,4458.17343,N,09331.05017,W,1.412,,120919,,,A*7D

$GNVTG,,T,,M,1.412,N,2.616,K,A*38

$GNGGA,203637.20,4458.17343,N,09331.05017,W,1,07,1.74,298.6,M,-30.7,M,,*7C

$GNGSA,A,3,21,15,10,20,27,,,,,,,,2.87,1.74,2.29*1B

$GNGSA,A,3,67,69,,,,,,,,,,,2.87,1.74,2.29*14

$GPGSV,3,1,12,05,02,080,,10,31,270,22,13,30,048,21,15,63,073,28*70

$GPGSV,3,2,12,16,01,279,,20,57,285,22,21,81,279,28,24,20,136,13*70

$GPGSV,3,3,12,27,23,314,24,29,15,185,18,46,27,225,,51,36,199,*76

$GLGSV,2,1,08,67,38,041,17,68,73,292,,69,27,244,22,76,10,027,*69

$GLGSV,2,2,08,77,09,078,,82,30,166,18,83,76,220,,84,33,326,21*68

$GNGLL,4458.17343,N,09331.05017,W,203637.20,A,A*60

$GNRMC,203637.40,A,4458.17342,N,09331.05009,W,0.068,,120919,,,A*7D

$GNVTG,,T,,M,0.068,N,0.126,K,A*36

$GNGGA,203637.40,4458.17342,N,09331.05009,W,1,07,1.74,298.3,M,-30.7,M,,*71

$GNGSA,A,3,21,15,10,20,27,,,,,,,,2.87,1.74,2.29*1B

$GNGSA,A,3,67,69,,,,,,,,,,,2.87,1.74,2.29*14

$GPGSV,3,1,12,05,02,080,,10,31,270,22,13,30,048,21,15,63,073,28*70

$GPGSV,3,2,12,16,01,279,,20,57,285,22,21,81,279,28,24,20,136,13*70

$GPGSV,3,3,12,27,23,314,24,29,15,185,18,46,27,225,,51,36,199,*76

$GLGSV,2,1,08,67,38,041,16,68,73,292,,69,27,244,22,76,10,027,*68

$GLGSV,2,2,08,77,09,078,,82,30,166,18,83,76,220,,84,33,326,21*68

$GNGLL,4458.17342,N,09331.05009,W,203637.40,A,A*68

$GNRMC,203637.60,A,4458.17335,N,09331.05007,W,1.291,,120919,,,A*74

$GNVTG,,T,,M,1.291,N,2.391,K,A*3F

$GNGGA,203637.60,4458.17335,N,09331.05007,W,1,07,1.74,298.2,M,-30.7,M,,*7C

$GNGSA,A,3,21,15,10,20,27,,,,,,,,2.87,1.74,2.29*1B

$GNGSA,A,3,67,69,,,,,,,,,,,2.87,1.74,2.29*14

$GPGSV,3,1,12,05,02,080,,10,31,270,22,13,30,048,21,15,63,073,28*70

$GPGSV,3,2,12,16,01,279,,20,57,285,22,21,81,279,28,24,20,136,14*77

$GPGSV,3,3,12,27,23,314,24,29,15,185,18,46,27,225,,51,36,199,*76

$GLGSV,2,1,08,67,38,041,17,68,73,292,,69,27,244,21,76,10,027,*6A

$GLGSV,2,2,08,77,09,078,,82,30,166,18,83,76,220,,84,33,326,21*68

$GNGLL,4458.17335,N,09331.05007,W,203637.60,A,A*64

$GNRMC,203637.80,A,4458.17338,N,09331.05004,W,0.781,,120919,,,A*71

$GNVTG,,T,,M,0.781,N,1.446,K,A*34

$GNGGA,203637.80,4458.17338,N,09331.05004,W,1,07,1.74,298.2,M,-30.7,M,,*7C

$GNGSA,A,3,21,15,10,20,27,,,,,,,,2.87,1.74,2.29*1B

$GNGSA,A,3,67,69,,,,,,,,,,,2.87,1.74,2.29*14

$GPGSV,3,1,12,05,02,080,,10,31,270,22,13,30,048,21,15,63,073,28*70

$GPGSV,3,2,12,16,01,279,,20,57,285,22,21,81,279,29,24,20,136,14*76

$GPGSV,3,3,12,27,23,314,24,29,15,185,19,46,27,225,,51,36,199,*77

$GLGSV,2,1,08,67,38,041,17,68,73,292,,69,27,244,22,76,10,027,*69

$GLGSV,2,2,08,77,09,078,,82,30,166,18,83,76,220,,84,33,326,21*68

$GNGLL,4458.17338,N,09331.05004,W,203637.80,A,A*64

$GNTXT,01,01,02,u-blox AG - www.u-blox.com*4E

$GNTXT,01,01,02,HW UBX-M8030 00080000*60

$GNTXT,01,01,02,EXT CORE 3.01 (107900)*33

$GNTXT,01,01,02,ROM BASE 3.01 (107888)*25

$GNTXT,01,01,02,FWVER=SPG 3.01*46

$GNTXT,01,01,02,PROTVER=18.00*11

$GNTXT,01,01,02,MOD=NEO-M8N-0*67

$GNTXT,01,01,02,FIS=0xEF4015 (100111)*58

$GNTXT,01,01,02,GPS;GLO;GAL;BDS*77

$GNTXT,01,01,02,SBAS;IMES;QZSS*49

$GNTXT,01,01,02,GNSS OTP=GPS;GLO*37

$GNTXT,01,01,02,LLC=FFFFFFFF-FFFFFFED-FFFFFFFF-FFFFFFFF-FFFFFF69*23

$GNTXT,01,01,02,ANTSUPERV=AC SD PDoS SR*3E

$GNTXT,01,01,02,ANTSTATUS=OK*25

$GNTXT,01,01,02,PF=3FF*4B

$GNRMC,203638.00,A,4458.17333,N,09331.04994,W,0.624,,120919,,,A*72

$GNVTG,,T,,M,0.624,N,1.155,K,A*3D

$GNGGA,203638.00,4458.17333,N,09331.04994,W,1,07,1.74,297.9,M,-30.7,M,,*75

$GNGSA,A,3,21,15,10,20,27,,,,,,,,2.87,1.74,2.29*1B

$GNGSA,A,3,67,69,,,,,,,,,,,2.87,1.74,2.29*14

$GPGSV,3,1,12,05,02,080,,10,31,270,22,13,30,048,21,15,63,073,28*70

$GPGSV,3,2,12,16,01,279,,20,57,285,22,21,81,279,29,24,20,136,14*76

$GPGSV,3,3,12,27,23,314,24,29,15,185,19,46,27,225,,51,36,199,*77

$GLGSV,2,1,08,67,38,041,16,68,73,292,,69,27,244,21,76,10,027,*6B

$GLGSV,2,2,08,77,09,078,,82,30,166,18,83,76,220,,84,33,326,21*68

$GNGLL,4458.17333,N,09331.04994,W,203638.00,A,A*69

$GNRMC,203638.20,A,4458.17318,N,09331.04986,W,2.520,,120919,,,A*7F

$GNVTG,,T,,M,2.520,N,4.667,K,A*3B

$GNGGA,203638.20,4458.17318,N,09331.04986,W,1,07,1.74,297.6,M,-30.7,M,,*72

$GNGSA,A,3,21,15,10,20,27,,,,,,,,2.87,1.74,2.29*1B

$GNGSA,A,3,67,69,,,,,,,,,,,2.87,1.74,2.29*14

$GPGSV,3,1,12,05,02,080,,10,31,270,22,13,30,048,21,15,63,073,28*70

$GPGSV,3,2,12,16,01,278,,20,57,285,22,21,81,279,29,24,20,136,14*77

$GPGSV,3,3,12,27,23,314,24,29,15,185,19,46,27,225,,51,36,199,*77

$GLGSV,2,1,08,67,38,041,16,68,73,292,,69,27,244,21,76,10,027,*6B

$GLGSV,2,2,08,77,09,078,,82,30,166,18,83,76,220,,84,33,326,21*68

$GNGLL,4458.17318,N,09331.04986,W,203638.20,A,A*61

$GNRMC,203638.40,A,4458.17310,N,09331.04980,W,0.554,,120919,,,A*76

$GNVTG,,T,,M,0.554,N,1.026,K,A*3C

$GNGGA,203638.40,4458.17310,N,09331.04980,W,1,07,1.74,297.4,M,-30.7,M,,*78

$GNGSA,A,3,21,15,10,20,27,,,,,,,,2.87,1.74,2.29*1B

$GNGSA,A,3,67,69,,,,,,,,,,,2.87,1.74,2.29*14

$GPGSV,3,1,12,05,02,080,,10,31,270,22,13,30,048,21,15,63,073,28*70

$GPGSV,3,2,12,16,01,278,,20,57,285,22,21,81,279,28,24,20,136,14*76

$GPGSV,3,3,12,27,23,314,24,29,15,185,19,46,27,225,,51,36,199,*77

$GLGSV,2,1,08,67,38,041,16,68,73,292,,69,27,244,21,76,10,027,*6B

$GLGSV,2,2,08,77,09,078,,82,30,166,18,83,76,220,,84,33,326,21*68

$GNGLL,4458.17310,N,09331.04980,W,203638.40,A,A*69

$GNRMC,203638.60,A,4458.17324,N,09331.04977,W,2.415,,120919,,,A*7D

$GNVTG,,T,,M,2.415,N,4.472,K,A*3A

$GNGGA,203638.60,4458.17324,N,09331.04977,W,1,07,1.74,297.4,M,-30.7,M,,*75

$GNGSA,A,3,21,15,10,20,27,,,,,,,,2.87,1.74,2.29*1B

$GNGSA,A,3,67,69,,,,,,,,,,,2.87,1.74,2.29*14

$GPGSV,3,1,12,05,02,080,,10,31,270,22,13,30,048,21,15,63,073,28*70

$GPGSV,3,2,12,16,01,278,,20,57,285,22,21,81,279,28,24,20,136,15*77

$GPGSV,3,3,12,27,23,314,24,29,15,185,19,46,27,225,,51,36,199,*77

$GLGSV,2,1,08,67,38,041,16,68,73,292,,69,27,244,21,76,10,027,*6B

$GLGSV,2,2,08,77,09,078,,82,30,166,18,83,76,220,,84,33,326,21*68

$GNGLL,4458.17324,N,09331.04977,W,203638.60,A,A*64

$GNRMC,203638.80,A,4458.17333,N,09331.04976,W,0.486,,120919,,,A*7C

$GNVTG,,T,,M,0.486,N,0.901,K,A*3F

$GNGGA,203638.80,4458.17333,N,09331.04976,W,1,07,1.74,297.4,M,-30.7,M,,*7C

$GNGSA,A,3,21,15,10,20,27,,,,,,,,2.87,1.74,2.29*1B

$GNGSA,A,3,67,69,,,,,,,,,,,2.87,1.74,2.29*14

$GPGSV,3,1,12,05,02,080,,10,31,270,22,13,30,048,20,15,63,073,28*71

$GPGSV,3,2,12,16,01,278,,20,57,285,22,21,81,279,28,24,20,136,15*77

$GPGSV,3,3,12,27,23,314,24,29,15,185,18,46,27,225,,51,36,199,*76

$GLGSV,2,1,08,67,38,041,16,68,73,292,,69,27,244,21,76,10,027,*6B

$GLGSV,2,2,08,77,09,078,,82,30,166,18,83,76,220,,84,33,326,21*68

$GNGLL,4458.17333,N,09331.04976,W,203638.80,A,A*6D

$GNRMC,203639.00,A,4458.17327,N,09331.04973,W,1.288,,120919,,,A*7C

$GNVTG,,T,,M,1.288,N,2.385,K,A*32

$GNGGA,203639.00,4458.17327,N,09331.04973,W,1,07,1.74,297.2,M,-30.7,M,,*73

$GNGSA,A,3,21,15,10,20,27,,,,,,,,2.87,1.74,2.29*1B

$GNGSA,A,3,67,69,,,,,,,,,,,2.87,1.74,2.29*14

$GPGSV,3,1,12,05,02,080,,10,31,270,22,13,30,048,20,15,63,073,28*71

$GPGSV,3,2,12,16,01,278,,20,57,285,22,21,81,279,28,24,20,136,15*77

$GPGSV,3,3,12,27,23,314,24,29,15,185,19,46,27,225,,51,36,199,*77

$GLGSV,2,1,08,67,38,041,16,68,73,292,,69,27,244,21,76,10,027,*6B

$GLGSV,2,2,08,77,09,078,,82,30,166,18,83,76,220,,84,33,326,21*68

$GNGLL,4458.17327,N,09331.04973,W,203639.00,A,A*64

$GNRMC,203639.20,A,4458.17315,N,09331.04966,W,1.510,,120919,,,A*7D

$GNVTG,,T,,M,1.510,N,2.796,K,A*32

$GNGGA,203639.20,4458.17315,N,09331.04966,W,1,07,1.74,296.8,M,-30.7,M,,*7F

$GNGSA,A,3,21,15,10,20,27,,,,,,,,2.87,1.74,2.29*1B

$GNGSA,A,3,67,69,,,,,,,,,,,2.87,1.74,2.29*14

$GPGSV,3,1,12,05,02,080,,10,31,270,22,13,30,048,20,15,63,073,28*71

$GPGSV,3,2,12,16,01,278,,20,57,285,21,21,81,278,28,24,20,136,15*75

$GPGSV,3,3,12,27,23,314,24,29,15,185,19,46,27,225,,51,36,199,*77

$GLGSV,2,1,08,67,38,041,16,68,73,292,,69,27,244,21,76,10,027,*6B

$GLGSV,2,2,08,77,09,078,,82,30,166,18,83,76,220,,84,33,326,21*68

$GNGLL,4458.17315,N,09331.04966,W,203639.20,A,A*63

$GNRMC,203639.40,A,4458.17302,N,09331.04953,W,0.581,,120919,,,A*72

$GNVTG,,T,,M,0.581,N,1.077,K,A*30

$GNGGA,203639.40,4458.17302,N,09331.04953,W,1,07,1.74,296.3,M,-30.7,M,,*72

$GNGSA,A,3,21,15,10,20,27,,,,,,,,2.87,1.74,2.29*1B

$GNGSA,A,3,67,69,,,,,,,,,,,2.87,1.74,2.29*14

$GPGSV,3,1,12,05,02,080,,10,31,270,22,13,30,048,20,15,63,073,28*71

$GPGSV,3,2,12,16,01,278,,20,57,285,21,21,81,278,28,24,20,136,15*75

$GPGSV,3,3,12,27,23,314,24,29,15,185,19,46,27,225,,51,36,199,*77

$GLGSV,2,1,08,67,38,041,16,68,73,292,,69,27,244,20,76,10,027,*6A

$GLGSV,2,2,08,77,09,078,,82,30,166,18,83,76,220,,84,33,326,21*68

$GNGLL,4458.17302,N,09331.04953,W,203639.40,A,A*65

$GNRMC,203639.60,A,4458.17309,N,09331.04947,W,1.366,,120919,,,A*70

$GNVTG,,T,,M,1.366,N,2.530,K,A*3B

$GNGGA,203639.60,4458.17309,N,09331.04947,W,1,07,1.74,296.2,M,-30.7,M,,*7F

$GNGSA,A,3,21,15,10,20,27,,,,,,,,2.87,1.74,2.29*1B

$GNGSA,A,3,67,69,,,,,,,,,,,2.87,1.74,2.29*14

$GPGSV,3,1,12,05,02,080,,10,31,270,22,13,30,048,20,15,63,073,28*71

$GPGSV,3,2,12,16,01,278,,20,57,285,21,21,81,278,28,24,20,136,15*75

$GPGSV,3,3,12,27,23,314,24,29,15,185,19,46,27,225,,51,36,199,*77

$GLGSV,2,1,08,67,38,041,16,68,73,292,,69,27,244,20,76,10,027,*6A

$GLGSV,2,2,08,77,09,078,,82,30,166,18,83,76,220,,84,33,326,21*68

$GNGLL,4458.17309,N,09331.04947,W,203639.60,A,A*69

$GNRMC,203639.80,A,4458.17314,N,09331.04946,W,0.466,,120919,,,A*75

$GNVTG,,T,,M,0.466,N,0.862,K,A*35

$GNGGA,203639.80,4458.17314,N,09331.04946,W,1,07,1.74,296.2,M,-30.7,M,,*7C

$GNGSA,A,3,21,15,10,20,27,,,,,,,,2.87,1.74,2.29*1B

$GNGSA,A,3,67,69,,,,,,,,,,,2.87,1.74,2.29*14

$GPGSV,3,1,12,05,02,080,,10,31,270,22,13,30,048,20,15,63,073,28*71

$GPGSV,3,2,12,16,01,278,,20,57,285,21,21,81,278,28,24,20,136,15*75

$GPGSV,3,3,12,27,23,314,24,29,15,185,19,46,27,225,,51,36,199,*77

$GLGSV,2,1,08,67,38,041,16,68,73,292,,69,27,244,20,76,10,027,*6A

$GLGSV,2,2,08,77,09,078,,82,30,166,18,83,76,220,,84,33,326,21*68

$GNGLL,4458.17314,N,09331.04946,W,203639.80,A,A*6A

$GNRMC,203640.00,A,4458.17317,N,09331.04947,W,0.474,,120919,,,A*72

$GNVTG,,T,,M,0.474,N,0.879,K,A*3C

$GNGGA,203640.00,4458.17317,N,09331.04947,W,1,07,1.74,296.2,M,-30.7,M,,*78

$GNGSA,A,3,21,15,10,20,27,,,,,,,,2.87,1.74,2.29*1B

$GNGSA,A,3,67,69,,,,,,,,,,,2.87,1.74,2.29*14

$GPGSV,3,1,12,05,02,080,,10,31,270,22,13,30,048,20,15,63,073,28*71

$GPGSV,3,2,12,16,01,278,,20,57,285,21,21,81,278,28,24,20,136,15*75

$GPGSV,3,3,12,27,23,314,24,29,15,185,18,46,27,225,,51,36,199,*76

$GLGSV,2,1,08,67,38,041,17,68,73,292,,69,27,244,20,76,10,027,*6B

$GLGSV,2,2,08,77,09,078,,82,30,166,18,83,76,220,,84,33,326,21*68

$GNGLL,4458.17317,N,09331.04947,W,203640.00,A,A*6E

$GNRMC,203640.20,A,4458.17320,N,09331.04949,W,0.615,,120919,,,A*7F

$GNVTG,,T,,M,0.615,N,1.139,K,A*35

$GNGGA,203640.20,4458.17320,N,09331.04949,W,1,07,1.74,296.2,M,-30.7,M,,*70

$GNGSA,A,3,21,15,10,20,27,,,,,,,,2.87,1.74,2.29*1B

$GNGSA,A,3,67,69,,,,,,,,,,,2.87,1.74,2.29*14

$GPGSV,3,1,12,05,02,080,,10,31,270,22,13,30,048,20,15,63,073,28*71

$GPGSV,3,2,12,16,01,278,,20,57,285,21,21,81,278,28,24,20,136,15*75

$GPGSV,3,3,12,27,23,314,24,29,15,185,18,46,27,225,,51,36,199,*76

$GLGSV,2,1,08,67,38,041,17,68,73,292,,69,27,244,20,76,10,027,*6B

$GLGSV,2,2,08,77,09,078,,82,30,166,18,83,76,220,,84,33,326,21*68

$GNGLL,4458.17320,N,09331.04949,W,203640.20,A,A*66

$GNRMC,203640.40,A,4458.17322,N,09331.04952,W,1.375,,120919,,,A*73

$GNVTG,,T,,M,1.375,N,2.547,K,A*39

$GNGGA,203640.40,4458.17322,N,09331.04952,W,1,07,1.74,296.3,M,-30.7,M,,*7F

$GNGSA,A,3,21,15,10,20,27,,,,,,,,2.87,1.74,2.29*1B

$GNGSA,A,3,67,69,,,,,,,,,,,2.87,1.74,2.29*14

$GPGSV,3,1,12,05,02,080,,10,31,270,22,13,30,048,20,15,63,073,28*71

$GPGSV,3,2,12,16,01,278,,20,57,285,20,21,81,278,28,24,20,136,15*74

$GPGSV,3,3,12,27,23,314,24,29,15,185,19,46,27,225,,51,36,199,*77

$GLGSV,2,1,08,67,38,041,17,68,73,292,,69,27,244,20,76,10,027,*6B

$GLGSV,2,2,08,77,09,078,,82,30,166,18,83,76,220,,84,33,326,21*68

$GNGLL,4458.17322,N,09331.04952,W,203640.40,A,A*68

$GNRMC,203640.60,A,4458.17320,N,09331.04941,W,1.542,,120919,,,A*73

$GNVTG,,T,,M,1.542,N,2.855,K,A*35

$GNGGA,203640.60,4458.17320,N,09331.04941,W,1,07,1.74,296.0,M,-30.7,M,,*7E

$GNGSA,A,3,21,15,10,20,27,,,,,,,,2.87,1.74,2.29*1B

$GNGSA,A,3,67,69,,,,,,,,,,,2.87,1.74,2.29*14

$GPGSV,3,1,12,05,02,080,,10,31,270,22,13,30,048,20,15,63,073,28*71

$GPGSV,3,2,12,16,01,278,,20,57,285,21,21,81,278,28,24,20,136,15*75

$GPGSV,3,3,12,27,23,314,24,29,15,185,19,46,27,225,,51,36,199,*77

$GNTXT,01,01,01,NMEA unknown msg*46

$GLGSV,2,1,08,67,38,041,17,68,73,292,,69,27,244,20,76,10,027,*6B

$GLGSV,2,2,08,77,09,078,,82,30,166,18,83,76,220,,84,33,326,21*68

$GNGLL,4458.17320,N,09331.04941,W,203640.60,A,A*6A

$GNRMC,203640.80,A,4458.17332,N,09331.04935,W,1.223,,120919,,,A*7D

$GNVTG,,T,,M,1.223,N,2.265,K,A*3C

$GNGGA,203640.80,4458.17332,N,09331.04935,W,1,07,1.74,296.1,M,-30.7,M,,*71

$GNGSA,A,3,21,15,10,20,27,,,,,,,,2.87,1.74,2.29*1B

$GNGSA,A,3,67,69,,,,,,,,,,,2.87,1.74,2.29*14

$GPGSV,3,1,12,05,02,080,,10,31,270,22,13,30,048,20,15,63,073,28*71

$GPGSV,3,2,12,16,01,278,,20,57,285,20,21,81,278,28,24,20,136,15*74

$GPGSV,3,3,12,27,23,314,24,29,15,185,19,46,27,225,,51,36,199,*77

$GLGSV,2,1,08,67,38,041,17,68,73,292,,69,27,244,20,76,10,027,*6B

$GLGSV,2,2,08,77,09,078,,82,30,166,18,83,76,220,,84,33,326,21*68

$GNGLL,4458.17332,N,09331.04935,W,203640.80,A,A*64

$GNRMC,203641.00,A,4458.17332,N,09331.04928,W,0.611,,120919,,,A*7C

$GNVTG,,T,,M,0.611,N,1.131,K,A*39

$GNGGA,203641.00,4458.17332,N,09331.04928,W,1,07,1.74,295.9,M,-30.7,M,,*7F

$GNGSA,A,3,21,15,10,20,27,,,,,,,,2.87,1.74,2.29*1B

$GNGSA,A,3,67,69,,,,,,,,,,,2.87,1.74,2.29*14

$GPGSV,3,1,12,05,02,080,,10,31,270,22,13,30,048,20,15,63,073,28*71

$GPGSV,3,2,12,16,01,278,,20,57,285,21,21,81,278,28,24,20,136,15*75

$GNTXT,01,01,01,NMEA unknown msg*46

$GPGSV,3,3,12,27,23,314,24,29,15,185,19,46,27,225,,51,36,199,*77

$GLGSV,2,1,08,67,38,041,17,68,73,292,,69,27,244,20,76,10,027,*6B

$GLGSV,2,2,08,77,09,078,,82,30,166,18,83,76,220,,84,33,326,21*68

$GNGLL,4458.17332,N,09331.04928,W,203641.00,A,A*61

$GNRMC,203641.20,A,4458.17328,N,09331.04928,W,1.416,,120919,,,A*71

$GNVTG,,T,,M,1.416,N,2.623,K,A*3A

$GNGGA,203641.20,4458.17328,N,09331.04928,W,1,07,1.74,295.8,M,-30.7,M,,*77

$GNGSA,A,3,21,15,10,20,27,,,,,,,,2.87,1.74,2.29*1B

$GNGSA,A,3,67,69,,,,,,,,,,,2.87,1.74,2.29*14

$GPGSV,3,1,12,05,02,080,,10,31,270,22,13,30,048,20,15,63,073,28*71

$GPGSV,3,2,12,16,01,278,,20,57,285,21,21,81,278,28,24,20,136,15*75

$GPGSV,3,3,12,27,23,314,24,29,15,185,19,46,27,225,,51,36,199,*77

$GLGSV,2,1,08,67,38,041,17,68,73,292,,69,27,244,20,76,10,027,*6B

$GLGSV,2,2,08,77,09,078,,82,30,166,18,83,76,220,,84,33,326,21*68

$GNGLL,4458.17328,N,09331.04928,W,203641.20,A,A*68

$GNRMC,203641.40,A,4458.17334,N,09331.04928,W,0.666,,120919,,,A*7E

$GNVTG,,T,,M,0.666,N,1.234,K,A*3F

$GNGGA,203641.40,4458.17334,N,09331.04928,W,1,07,1.74,295.9,M,-30.7,M,,*7D

$GNGSA,A,3,21,15,10,20,27,,,,,,,,2.88,1.74,2.29*14

$GNGSA,A,3,67,69,,,,,,,,,,,2.88,1.74,2.29*1B

$GPGSV,3,1,12,05,02,080,,10,31,270,21,13,30,048,20,15,63,073,28*72

$GPGSV,3,2,12,16,01,278,,20,57,285,20,21,81,278,28,24,20,136,15*74

$GPGSV,3,3,12,27,23,314,23,29,15,185,19,46,27,225,,51,36,199,*70

$GLGSV,2,1,08,67,38,041,16,68,73,292,,69,27,244,20,76,10,027,*6A

$GLGSV,2,2,08,77,09,078,,82,30,166,18,83,76,220,,84,33,326,21*68

$GNGLL,4458.17334,N,09331.04928,W,203641.40,A,A*63

$GNRMC,203641.60,A,4458.17333,N,09331.04928,W,1.232,,120919,,,A*7F

$GNVTG,,T,,M,1.232,N,2.282,K,A*35

$GNGGA,203641.60,4458.17333,N,09331.04928,W,1,07,1.74,295.9,M,-30.7,M,,*78

$GNGSA,A,3,21,15,10,20,27,,,,,,,,2.88,1.74,2.29*14

$GNGSA,A,3,67,69,,,,,,,,,,,2.88,1.74,2.29*1B

$GPGSV,3,1,12,05,02,080,,10,31,270,21,13,30,048,21,15,63,073,28*73

$GPGSV,3,2,12,16,01,278,,20,57,285,20,21,81,278,28,24,20,136,15*74

$GPGSV,3,3,12,27,23,314,23,29,15,185,19,46,27,225,,51,36,199,*70

$GLGSV,2,1,08,67,38,041,16,68,73,292,,69,27,244,20,76,10,027,*6A

$GLGSV,2,2,08,77,09,078,,82,30,166,19,83,76,220,,84,33,326,21*69

$GNGLL,4458.17333,N,09331.04928,W,203641.60,A,A*66

$GNRMC,203641.80,A,4458.17338,N,09331.04937,W,1.080,,120919,,,A*7F

$GNVTG,,T,,M,1.080,N,2.001,K,A*37

$GNGGA,203641.80,4458.17338,N,09331.04937,W,1,07,1.74,296.2,M,-30.7,M,,*7B

$GNGSA,A,3,21,15,10,20,27,,,,,,,,2.88,1.74,2.29*14

$GNGSA,A,3,67,69,,,,,,,,,,,2.88,1.74,2.29*1B

$GPGSV,3,1,12,05,02,080,,10,31,270,21,13,30,048,21,15,63,073,29*72

$GPGSV,3,2,12,16,01,278,,20,57,285,20,21,81,278,28,24,20,136,15*74

$GPGSV,3,3,12,27,23,314,23,29,15,185,19,46,27,225,,51,36,199,*70

$GLGSV,2,1,08,67,38,041,16,68,73,292,,69,27,244,21,76,10,027,*6B

$GLGSV,2,2,08,77,09,078,,82,30,166,19,83,76,220,,84,33,326,21*69

$GNGLL,4458.17338,N,09331.04937,W,203641.80,A,A*6D

$GNRMC,203642.00,A,4458.17340,N,09331.04936,W,0.456,,120919,,,A*74

$GNVTG,,T,,M,0.456,N,0.845,K,A*33

$GNGGA,203642.00,4458.17340,N,09331.04936,W,1,07,1.74,296.3,M,-30.7,M,,*7F

$GNGSA,A,3,21,15,10,20,27,,,,,,,,2.88,1.74,2.29*14

$GNGSA,A,3,67,69,,,,,,,,,,,2.88,1.74,2.29*1B

$GPGSV,3,1,12,05,02,080,,10,31,270,21,13,30,048,21,15,63,073,29*72

$GPGSV,3,2,12,16,01,278,,20,57,285,20,21,81,278,28,24,20,136,14*75

$GPGSV,3,3,12,27,23,314,24,29,15,185,19,46,27,225,,51,36,199,*77

$GLGSV,2,1,08,67,38,041,16,68,73,292,,69,27,244,21,76,10,027,*6B

$GLGSV,2,2,08,77,09,078,,82,30,166,19,83,76,220,,84,33,326,21*69

$GNGLL,4458.17340,N,09331.04936,W,203642.00,A,A*68

$GNRMC,203642.20,A,4458.17337,N,09331.04929,W,0.634,,120919,,,A*7E

$GNVTG,,T,,M,0.634,N,1.174,K,A*3F

$GNGGA,203642.20,4458.17337,N,09331.04929,W,1,07,1.74,296.1,M,-30.7,M,,*71

$GNGSA,A,3,21,15,10,20,27,,,,,,,,2.88,1.74,2.29*14

$GNGSA,A,3,67,69,,,,,,,,,,,2.88,1.74,2.29*1B

$GPGSV,3,1,12,05,02,080,,10,31,270,21,13,30,048,20,15,63,073,28*72

$GPGSV,3,2,12,16,01,278,,20,57,285,20,21,81,278,28,24,20,136,14*75

$GPGSV,3,3,12,27,23,314,24,29,15,185,19,46,27,225,,51,36,199,*77

$GLGSV,2,1,08,67,38,041,16,68,73,292,,69,27,244,21,76,10,027,*6B

$GLGSV,2,2,08,77,09,078,,82,30,166,19,83,76,220,,84,33,326,21*69

$GNGLL,4458.17337,N,09331.04929,W,203642.20,A,A*64

$GNRMC,203642.40,A,4458.17336,N,09331.04927,W,0.673,,120919,,,A*74

$GNVTG,,T,,M,0.673,N,1.247,K,A*3F

$GNGGA,203642.40,4458.17336,N,09331.04927,W,1,07,1.74,296.0,M,-30.7,M,,*79

$GNGSA,A,3,21,15,10,20,27,,,,,,,,2.88,1.74,2.29*14

$GNGSA,A,3,67,69,,,,,,,,,,,2.88,1.74,2.29*1B

$GPGSV,3,1,12,05,02,080,,10,31,270,21,13,30,048,20,15,63,073,29*73

$GPGSV,3,2,12,16,01,278,,20,57,285,20,21,81,278,28,24,20,136,14*75

$GPGSV,3,3,12,27,23,314,24,29,15,185,19,46,27,225,,51,36,199,*77

$GLGSV,2,1,08,67,38,041,16,68,73,292,,69,27,244,21,76,10,027,*6B

$GLGSV,2,2,08,77,09,078,,82,30,166,19,83,76,220,,84,33,326,21*69

$GNGLL,4458.17336,N,09331.04927,W,203642.40,A,A*6D

$GNRMC,203642.60,A,4458.17341,N,09331.04929,W,0.482,,120919,,,A*74

$GNVTG,,T,,M,0.482,N,0.893,K,A*31

$GNGGA,203642.60,4458.17341,N,09331.04929,W,1,07,1.74,296.0,M,-30.7,M,,*75

$GNGSA,A,3,21,15,10,20,27,,,,,,,,2.88,1.74,2.29*14

$GNGSA,A,3,67,69,,,,,,,,,,,2.88,1.74,2.29*1B

$GPGSV,3,1,12,05,02,080,,10,31,270,21,13,30,048,20,15,63,073,28*72

$GPGSV,3,2,12,16,01,278,,20,57,285,21,21,81,278,28,24,20,136,14*74

$GPGSV,3,3,12,27,23,314,24,29,15,185,19,46,27,225,,51,36,199,*77

$GLGSV,2,1,08,67,38,041,15,68,73,292,,69,27,244,21,76,10,027,*68

$GLGSV,2,2,08,77,09,078,,82,30,166,19,83,76,220,,84,33,326,21*69

$GNGLL,4458.17341,N,09331.04929,W,203642.60,A,A*61

$GNRMC,203642.80,A,4458.17341,N,09331.04931,W,1.078,,120919,,,A*73

$GNVTG,,T,,M,1.078,N,1.997,K,A*35

$GNGGA,203642.80,4458.17341,N,09331.04931,W,1,07,1.74,295.9,M,-30.7,M,,*78

$GNGSA,A,3,21,15,10,20,27,,,,,,,,2.88,1.74,2.29*14

$GNGSA,A,3,67,69,,,,,,,,,,,2.88,1.74,2.29*1B

$GPGSV,3,1,12,05,02,080,,10,31,270,21,13,30,048,20,15,63,073,28*72

$GPGSV,3,2,12,16,01,278,,20,57,285,21,21,81,278,28,24,20,136,14*74

$GPGSV,3,3,12,27,23,314,24,29,15,185,19,46,27,225,,51,36,199,*77

$GLGSV,2,1,08,67,38,041,16,68,73,292,,69,27,244,21,76,10,027,*6B

$GLGSV,2,2,08,77,09,078,,82,30,166,18,83,76,220,,84,33,326,21*68

$GNGLL,4458.17341,N,09331.04931,W,203642.80,A,A*66

$GNRMC,203643.00,A,4458.17342,N,09331.04934,W,0.889,,120919,,,A*7B

$GNVTG,,T,,M,0.889,N,1.647,K,A*30

$GNGGA,203643.00,4458.17342,N,09331.04934,W,1,07,1.74,296.0,M,-30.7,M,,*7D

$GNGSA,A,3,21,15,10,20,27,,,,,,,,2.88,1.74,2.29*14

$GNGSA,A,3,67,69,,,,,,,,,,,2.88,1.74,2.29*1B

$GPGSV,3,1,12,05,02,080,,10,31,270,21,13,30,048,20,15,63,073,28*72

$GPGSV,3,2,12,16,01,278,,20,57,285,21,21,81,278,28,24,20,136,14*74

$GPGSV,3,3,12,27,23,314,24,29,15,185,19,46,27,225,,51,36,199,*77

$GLGSV,2,1,08,67,38,041,16,68,73,292,,69,27,244,21,76,10,027,*6B

$GLGSV,2,2,08,77,09,078,,82,30,166,18,83,76,220,,84,33,326,21*68

$GNGLL,4458.17342,N,09331.04934,W,203643.00,A,A*69

$GNRMC,203643.20,A,4458.17345,N,09331.04926,W,1.397,,120919,,,A*78

$GNVTG,,T,,M,1.397,N,2.587,K,A*39

$GNGGA,203643.20,4458.17345,N,09331.04926,W,1,07,1.74,296.0,M,-30.7,M,,*7B

$GNGSA,A,3,21,15,10,20,27,,,,,,,,2.88,1.74,2.29*14

$GNGSA,A,3,67,69,,,,,,,,,,,2.88,1.74,2.29*1B

$GPGSV,3,1,12,05,02,080,,10,31,270,21,13,30,048,20,15,63,073,28*72

$GPGSV,3,2,12,16,01,278,,20,57,285,21,21,81,278,28,24,20,136,14*74

$GPGSV,3,3,12,27,23,314,24,29,15,185,19,46,27,225,,51,36,199,*77

$GLGSV,2,1,08,67,38,041,16,68,73,292,,69,27,244,21,76,10,027,*6B

$GLGSV,2,2,08,77,09,078,,82,30,166,18,83,76,220,,84,33,326,21*68

$GNGLL,4458.17345,N,09331.04926,W,203643.20,A,A*6F

$GNRMC,203643.40,A,4458.17347,N,09331.04919,W,0.108,,120919,,,A*75

$GNVTG,,T,,M,0.108,N,0.201,K,A*37

$GNGGA,203643.40,4458.17347,N,09331.04919,W,1,07,1.74,295.9,M,-30.7,M,,*79

$GNTXT,01,01,01,NMEA unknown msg*46

$GNGSA,A,3,21,15,10,20,27,,,,,,,,2.88,1.74,2.29*14

$GNGSA,A,3,67,69,,,,,,,,,,,2.88,1.74,2.29*1B

$GPGSV,3,1,12,05,02,080,,10,31,270,21,13,30,048,20,15,63,073,28*72

$GPGSV,3,2,12,16,01,278,,20,57,285,21,21,81,278,28,24,20,136,14*74

$GPGSV,3,3,12,27,23,314,24,29,15,185,19,46,27,225,,51,36,199,*77

$GLGSV,2,1,08,67,38,041,17,68,73,292,,69,27,244,21,76,10,027,*6A

$GLGSV,2,2,08,77,09,078,,82,30,166,18,83,76,220,,84,33,326,21*68

$GNGLL,4458.17347,N,09331.04919,W,203643.40,A,A*67

$GNRMC,203643.60,A,4458.17349,N,09331.04920,W,0.414,,120919,,,A*7B

$GNVTG,,T,,M,0.414,N,0.766,K,A*3B

$GNGGA,203643.60,4458.17349,N,09331.04920,W,1,07,1.74,295.9,M,-30.7,M,,*7F

$GNGSA,A,3,21,15,10,20,27,,,,,,,,2.88,1.74,2.29*14

$GNGSA,A,3,67,69,,,,,,,,,,,2.88,1.74,2.29*1B

$GPGSV,3,1,12,05,02,080,,10,31,270,21,13,30,048,20,15,63,073,28*72

$GPGSV,3,2,12,16,01,278,,20,57,285,21,21,81,278,28,24,20,136,13*73

$GPGSV,3,3,12,27,23,314,24,29,15,185,19,46,27,225,,51,36,199,*77

$GLGSV,2,1,08,67,38,041,16,68,73,292,,69,27,244,21,76,10,027,*6B

$GLGSV,2,2,08,77,09,078,,82,30,166,19,83,76,220,,84,33,326,21*69

$GNGLL,4458.17349,N,09331.04920,W,203643.60,A,A*61

$GNRMC,203643.80,A,4458.17347,N,09331.04918,W,0.480,,120919,,,A*7D

$GNVTG,,T,,M,0.480,N,0.889,K,A*38

$GNGGA,203643.80,4458.17347,N,09331.04918,W,1,07,1.74,295.9,M,-30.7,M,,*74

$GNGSA,A,3,21,15,10,20,27,,,,,,,,2.88,1.74,2.29*14

$GNGSA,A,3,67,69,,,,,,,,,,,2.88,1.74,2.29*1B

$GPGSV,3,1,12,05,02,080,,10,31,270,21,13,30,048,20,15,63,073,28*72

$GPGSV,3,2,12,16,01,278,,20,57,285,21,21,81,278,28,24,20,136,13*73

$GPGSV,3,3,12,27,23,314,23,29,15,185,19,46,27,225,,51,36,199,*70

$GLGSV,2,1,08,67,38,041,16,68,73,292,,69,27,244,21,76,10,027,*6B

$GLGSV,2,2,08,77,09,078,,82,30,166,18,83,76,220,,84,33,326,21*68

$GNGLL,4458.17347,N,09331.04918,W,203643.80,A,A*6A

$GNRMC,203644.00,A,4458.17352,N,09331.04921,W,0.432,,120919,,,A*75

$GNVTG,,T,,M,0.432,N,0.800,K,A*30

$GNGGA,203644.00,4458.17352,N,09331.04921,W,1,07,1.74,296.1,M,-30.7,M,,*7E

$GNGSA,A,3,21,15,10,20,27,,,,,,,,2.88,1.74,2.29*14

$GNGSA,A,3,67,69,,,,,,,,,,,2.88,1.74,2.29*1B

$GPGSV,3,1,12,05,02,080,,10,31,270,21,13,30,048,20,15,63,073,28*72

$GPGSV,3,2,12,16,01,278,,20,57,285,22,21,81,278,28,24,20,136,13*70

$GPGSV,3,3,12,27,23,314,23,29,15,185,19,46,27,225,,51,36,199,*70

$GLGSV,2,1,08,67,38,041,16,68,73,292,,69,27,244,21,76,10,027,*6B

$GLGSV,2,2,08,77,09,078,,82,30,166,18,83,76,220,,84,33,326,21*68

$GNGLL,4458.17352,N,09331.04921,W,203644.00,A,A*6B

$GNRMC,203644.20,A,4458.17345,N,09331.04922,W,1.750,,120919,,,A*74

$GNVTG,,T,,M,1.750,N,3.240,K,A*3B

$GNGGA,203644.20,4458.17345,N,09331.04922,W,1,07,1.74,296.0,M,-30.7,M,,*78

$GNGSA,A,3,21,15,10,20,27,,,,,,,,2.88,1.74,2.29*14

$GNGSA,A,3,67,69,,,,,,,,,,,2.88,1.74,2.29*1B

$GPGSV,3,1,12,05,02,080,,10,31,270,21,13,30,048,20,15,63,073,28*72

$GPGSV,3,2,12,16,01,278,,20,57,285,22,21,81,278,28,24,20,136,12*71

$GPGSV,3,3,12,27,23,314,23,29,15,185,19,46,27,225,,51,36,199,*70

$GLGSV,2,1,08,67,38,041,16,68,73,292,,69,27,244,21,76,10,027,*6B

$GLGSV,2,2,08,77,09,078,,82,30,166,19,83,76,220,,84,33,326,21*69

$GNGLL,4458.17345,N,09331.04922,W,203644.20,A,A*6C

$GNRMC,203644.40,A,4458.17338,N,09331.04924,W,0.758,,120919,,,A*77

$GNVTG,,T,,M,0.758,N,1.403,K,A*31

$GNGGA,203644.40,4458.17338,N,09331.04924,W,1,07,1.74,295.9,M,-30.7,M,,*78

$GNGSA,A,3,21,15,10,20,27,,,,,,,,2.88,1.74,2.29*14

$GNGSA,A,3,67,69,,,,,,,,,,,2.88,1.74,2.29*1B

$GPGSV,3,1,12,05,02,080,,10,31,270,21,13,30,048,20,15,63,073,28*72

$GPGSV,3,2,12,16,01,278,,20,57,285,22,21,81,278,28,24,20,136,12*71

$GPGSV,3,3,12,27,23,314,23,29,15,185,19,46,27,225,,51,36,199,*70

$GLGSV,2,1,08,67,38,041,16,68,73,292,,69,27,244,22,76,10,027,*68

$GLGSV,2,2,08,77,09,078,,82,30,166,18,83,76,220,,84,33,326,21*68

$GNGLL,4458.17338,N,09331.04924,W,203644.40,A,A*66

$GNRMC,203644.60,A,4458.17331,N,09331.04919,W,0.483,,120919,,,A*77

$GNVTG,,T,,M,0.483,N,0.894,K,A*37

$GNGGA,203644.60,4458.17331,N,09331.04919,W,1,07,1.74,295.6,M,-30.7,M,,*72

$GNGSA,A,3,21,15,10,20,27,,,,,,,,2.88,1.74,2.29*14

$GNGSA,A,3,67,69,,,,,,,,,,,2.88,1.74,2.29*1B

$GPGSV,3,1,12,05,02,080,,10,31,270,22,13,30,048,20,15,63,073,27*7E

$GPGSV,3,2,12,16,01,278,,20,57,285,22,21,81,278,28,24,20,136,13*70

$GPGSV,3,3,12,27,23,314,23,29,15,185,19,46,27,225,,51,36,199,*70

$GLGSV,2,1,08,67,38,041,15,68,73,292,,69,27,244,21,76,10,027,*68

$GLGSV,2,2,08,77,09,078,,82,30,166,18,83,76,220,,84,33,326,21*68

$GNGLL,4458.17331,N,09331.04919,W,203644.60,A,A*63

$GNRMC,203644.80,A,4458.17320,N,09331.04915,W,2.341,,120919,,,A*7E

$GNVTG,,T,,M,2.341,N,4.335,K,A*38

$GNGGA,203644.80,4458.17320,N,09331.04915,W,1,07,1.74,295.5,M,-30.7,M,,*73

$GNGSA,A,3,21,15,10,20,27,,,,,,,,2.88,1.74,2.29*14

$GNGSA,A,3,67,69,,,,,,,,,,,2.88,1.74,2.29*1B

$GPGSV,3,1,12,05,02,080,,10,31,270,21,13,30,048,20,15,63,073,28*72

$GPGSV,3,2,12,16,01,278,,20,57,285,22,21,81,278,28,24,20,136,13*70

$GPGSV,3,3,12,27,23,314,23,29,15,185,19,46,27,225,,51,36,199,*70

$GLGSV,2,1,08,67,38,041,15,68,73,292,,69,27,244,21,76,10,027,*68

$GLGSV,2,2,08,77,09,078,,82,30,166,18,83,76,220,,84,33,326,21*68

$GNGLL,4458.17320,N,09331.04915,W,203644.80,A,A*61

$GNRMC,203645.00,A,4458.17315,N,09331.04915,W,1.149,,120919,,,A*78

$GNVTG,,T,,M,1.149,N,2.127,K,A*36

$GNGGA,203645.00,4458.17315,N,09331.04915,W,1,07,1.74,295.5,M,-30.7,M,,*7C

$GNGSA,A,3,21,15,10,20,27,,,,,,,,2.88,1.74,2.29*14

$GNGSA,A,3,67,69,,,,,,,,,,,2.88,1.74,2.29*1B

$GPGSV,3,1,12,05,02,080,,10,31,270,21,13,30,048,20,15,63,073,27*7D

$GPGSV,3,2,12,16,01,278,,20,57,285,22,21,81,278,28,24,20,136,14*77

$GPGSV,3,3,12,27,23,314,23,29,15,185,19,46,27,225,,51,36,199,*70

$GLGSV,2,1,08,67,38,041,15,68,73,292,,69,27,244,21,76,10,027,*68

$GLGSV,2,2,08,77,09,078,,82,30,166,18,83,76,220,,84,33,326,21*68

$GNGLL,4458.17315,N,09331.04915,W,203645.00,A,A*6E

$GNRMC,203645.20,A,4458.17326,N,09331.04919,W,1.417,,120919,,,A*78

$GNVTG,,T,,M,1.417,N,2.625,K,A*3D

$GNGGA,203645.20,4458.17326,N,09331.04919,W,1,07,1.74,295.7,M,-30.7,M,,*70

$GNGSA,A,3,21,15,10,20,27,,,,,,,,2.88,1.74,2.29*14

$GNGSA,A,3,67,69,,,,,,,,,,,2.88,1.74,2.29*1B

$GPGSV,3,1,12,05,02,080,,10,31,270,21,13,30,048,20,15,63,073,27*7D

$GPGSV,3,2,12,16,01,278,,20,57,285,22,21,81,278,28,24,20,136,14*77

$GPGSV,3,3,12,27,23,314,23,29,15,185,19,46,27,225,,51,36,199,*70

$GLGSV,2,1,08,67,38,041,15,68,73,292,,69,27,244,21,76,10,027,*68

$GLGSV,2,2,08,77,09,078,,82,30,166,19,83,76,220,,84,33,326,21*69

$GNGLL,4458.17326,N,09331.04919,W,203645.20,A,A*60

$GNRMC,203645.40,A,4458.17325,N,09331.04913,W,0.597,,120919,,,A*7F

$GNVTG,,T,,M,0.597,N,1.106,K,A*30

$GNGGA,203645.40,4458.17325,N,09331.04913,W,1,07,1.74,295.4,M,-30.7,M,,*7C

$GNGSA,A,3,21,15,10,20,27,,,,,,,,2.88,1.74,2.29*14

$GNGSA,A,3,67,69,,,,,,,,,,,2.88,1.74,2.29*1B

$GPGSV,3,1,12,05,02,080,,10,31,270,21,13,30,048,20,15,63,073,27*7D

$GPGSV,3,2,12,16,01,278,,20,57,285,22,21,81,278,28,24,20,136,14*77

$GPGSV,3,3,12,27,23,314,23,29,15,185,19,46,27,225,,51,36,199,*70

$GLGSV,2,1,08,67,38,041,15,68,73,292,,69,27,244,21,76,10,027,*68

$GLGSV,2,2,08,77,09,078,,82,30,166,19,83,76,220,,84,33,326,21*69

$GNGLL,4458.17325,N,09331.04913,W,203645.40,A,A*6F

$GNRMC,203645.60,A,4458.17319,N,09331.04907,W,0.157,,120919,,,A*7F

$GNVTG,,T,,M,0.157,N,0.291,K,A*34

$GNGGA,203645.60,4458.17319,N,09331.04907,W,1,07,1.74,295.1,M,-30.7,M,,*71

$GNGSA,A,3,21,15,10,20,27,,,,,,,,2.88,1.74,2.29*14

$GNGSA,A,3,67,69,,,,,,,,,,,2.88,1.74,2.29*1B

$GPGSV,3,1,12,05,02,080,,10,31,270,21,13,30,048,20,15,63,073,27*7D

$GPGSV,3,2,12,16,01,278,,20,57,285,22,21,81,278,28,24,20,136,14*77

$GPGSV,3,3,12,27,23,314,23,29,15,185,19,46,27,225,,51,36,199,*70

$GLGSV,2,1,08,67,38,041,15,68,73,293,,69,27,244,21,76,10,027,*69

$GLGSV,2,2,08,77,09,078,,82,30,166,19,83,76,220,,84,33,326,21*69

$GNGLL,4458.17319,N,09331.04907,W,203645.60,A,A*67

$GNRMC,203645.80,A,4458.17313,N,09331.04902,W,0.702,,120919,,,A*78

$GNVTG,,T,,M,0.702,N,1.300,K,A*3A

$GNGGA,203645.80,4458.17313,N,09331.04902,W,1,07,1.74,294.8,M,-30.7,M,,*78

$GNGSA,A,3,21,15,10,20,27,,,,,,,,2.88,1.74,2.29*14

$GNGSA,A,3,67,69,,,,,,,,,,,2.88,1.74,2.29*1B

$GPGSV,3,1,12,05,02,080,,10,31,270,21,13,30,048,20,15,63,073,27*7D

$GPGSV,3,2,12,16,01,278,,20,57,285,22,21,81,278,28,24,20,136,14*77

$GPGSV,3,3,12,27,23,314,23,29,15,185,19,46,27,225,,51,36,199,*70

$GLGSV,2,1,08,67,38,041,15,68,73,293,,69,27,244,21,76,10,027,*69

$GLGSV,2,2,08,77,09,078,,82,30,166,19,83,76,220,,84,33,326,21*69

$GNGLL,4458.17313,N,09331.04902,W,203645.80,A,A*66

$GNRMC,203646.00,A,4458.17306,N,09331.04905,W,1.759,,120919,,,A*7F

$GNVTG,,T,,M,1.759,N,3.257,K,A*34

$GNGGA,203646.00,4458.17306,N,09331.04905,W,1,07,1.74,294.7,M,-30.7,M,,*7F

$GNGSA,A,3,21,15,10,20,27,,,,,,,,2.88,1.74,2.29*14

$GNGSA,A,3,67,69,,,,,,,,,,,2.88,1.74,2.29*1B

$GPGSV,3,1,12,05,02,080,,10,31,270,21,13,30,048,20,15,63,073,27*7D

$GPGSV,3,2,12,16,01,278,,20,57,285,21,21,81,278,28,24,20,136,15*75

$GPGSV,3,3,12,27,23,314,23,29,15,185,19,46,27,225,,51,36,199,*70

$GLGSV,2,1,08,67,38,041,15,68,73,293,,69,27,244,21,76,10,027,*69

$GLGSV,2,2,08,77,09,078,,82,30,166,19,83,76,220,,84,33,326,20*68

$GNGLL,4458.17306,N,09331.04905,W,203646.00,A,A*6E

$GNRMC,203646.20,A,4458.17305,N,09331.04908,W,1.100,,120919,,,A*79

$GNVTG,,T,,M,1.100,N,2.038,K,A*34

$GNGGA,203646.20,4458.17305,N,09331.04908,W,1,07,1.74,294.8,M,-30.7,M,,*7C

$GNGSA,A,3,21,15,10,20,27,,,,,,,,2.88,1.74,2.29*14

$GNGSA,A,3,67,69,,,,,,,,,,,2.88,1.74,2.29*1B

$GPGSV,3,1,12,05,02,080,,10,31,270,21,13,30,048,19,15,63,073,27*77

$GPGSV,3,2,12,16,01,278,,20,57,285,21,21,81,278,28,24,20,136,15*75

$GPGSV,3,3,12,27,23,314,23,29,15,185,18,46,27,225,,51,36,199,*71

$GLGSV,2,1,08,67,38,041,14,68,73,293,,69,27,244,21,76,10,027,*68

$GLGSV,2,2,08,77,09,078,,82,30,166,19,83,76,220,,84,33,326,20*68

$GNGLL,4458.17305,N,09331.04908,W,203646.20,A,A*62

$GNRMC,203646.40,A,4458.17316,N,09331.04907,W,1.609,,120919,,,A*7C

$GNVTG,,T,,M,1.609,N,2.981,K,A*31

$GNGGA,203646.40,4458.17316,N,09331.04907,W,1,07,1.74,294.9,M,-30.7,M,,*76

$GNGSA,A,3,21,15,10,20,27,,,,,,,,2.88,1.74,2.29*14

$GNGSA,A,3,67,69,,,,,,,,,,,2.88,1.74,2.29*1B

$GPGSV,3,1,12,05,02,080,,10,31,270,21,13,30,048,20,15,63,073,27*7D

$GPGSV,3,2,12,16,01,278,,20,57,285,21,21,81,278,28,24,20,136,15*75

$GPGSV,3,3,12,27,23,314,23,29,15,185,18,46,27,225,,51,36,199,*71

$GLGSV,2,1,08,67,38,041,14,68,73,293,,69,27,244,21,76,10,027,*68

$GLGSV,2,2,08,77,09,078,,82,30,166,19,83,76,220,,84,33,326,20*68

$GNGLL,4458.17316,N,09331.04907,W,203646.40,A,A*69

$GNRMC,203646.60,A,4458.17329,N,09331.04898,W,3.320,,120919,,,A*79

$GNVTG,,T,,M,3.320,N,6.148,K,A*34

$GNGGA,203646.60,4458.17329,N,09331.04898,W,1,07,1.74,294.5,M,-30.7,M,,*73

$GNGSA,A,3,21,15,10,20,27,,,,,,,,2.88,1.74,2.29*14

$GNGSA,A,3,67,69,,,,,,,,,,,2.88,1.74,2.29*1B

$GPGSV,3,1,12,05,02,080,,10,31,270,21,13,30,048,20,15,63,073,27*7D

$GPGSV,3,2,12,16,01,278,,20,57,285,21,21,81,278,28,24,20,136,14*74

$GPGSV,3,3,12,27,23,314,23,29,15,185,19,46,27,225,,51,36,199,*70

$GLGSV,2,1,08,67,38,041,14,68,73,293,,69,27,244,21,76,10,027,*68

$GLGSV,2,2,08,77,09,078,,82,30,166,19,83,76,220,,84,33,326,20*68

$GNGLL,4458.17329,N,09331.04898,W,203646.60,A,A*60

$GNRMC,203646.80,A,4458.17339,N,09331.04892,W,1.693,,120919,,,A*73

$GNVTG,,T,,M,1.693,N,3.136,K,A*37

$GNGGA,203646.80,4458.17339,N,09331.04892,W,1,07,1.74,294.3,M,-30.7,M,,*70

$GNGSA,A,3,21,15,10,20,27,,,,,,,,2.88,1.74,2.29*14

$GNGSA,A,3,67,69,,,,,,,,,,,2.88,1.74,2.29*1B

$GPGSV,3,1,12,05,02,080,,10,31,270,21,13,30,048,20,15,63,073,27*7D

$GPGSV,3,2,12,16,01,278,,20,57,285,21,21,81,278,28,24,20,136,14*74

$GPGSV,3,3,12,27,23,314,23,29,15,185,19,46,27,225,,51,36,199,*70

$GLGSV,2,1,08,67,38,041,14,68,73,293,,69,27,244,21,76,10,027,*68

$GLGSV,2,2,08,77,09,078,,82,30,166,19,83,76,220,,84,33,326,21*69

$GNGLL,4458.17339,N,09331.04892,W,203646.80,A,A*65

$GNRMC,203647.00,A,4458.17335,N,09331.04879,W,0.123,,120919,,,A*7E

$GNVTG,,T,,M,0.123,N,0.228,K,A*35

$GNGGA,203647.00,4458.17335,N,09331.04879,W,1,07,1.74,293.8,M,-30.7,M,,*7C

$GNGSA,A,3,21,15,10,20,27,,,,,,,,2.88,1.74,2.29*14

$GNGSA,A,3,67,69,,,,,,,,,,,2.88,1.74,2.29*1B

$GPGSV,3,1,12,05,02,080,,10,31,270,21,13,30,048,20,15,63,073,27*7D

$GPGSV,3,2,12,16,01,278,,20,57,285,21,21,81,278,28,24,20,136,14*74

$GPGSV,3,3,12,27,23,314,23,29,15,185,19,46,27,225,,51,36,199,*70

$GLGSV,2,1,08,67,38,041,13,68,73,293,,69,27,244,21,76,10,027,*6F

$GLGSV,2,2,08,77,09,078,,82,30,166,19,83,76,220,,84,33,326,20*68

$GNGLL,4458.17335,N,09331.04879,W,203647.00,A,A*65

$GNRMC,203647.20,A,4458.17342,N,09331.04877,W,0.823,,120919,,,A*7B

$GNVTG,,T,,M,0.823,N,1.524,K,A*36

$GNGGA,203647.20,4458.17342,N,09331.04877,W,1,07,1.74,293.8,M,-30.7,M,,*70

$GNGSA,A,3,21,15,10,20,27,,,,,,,,2.88,1.74,2.29*14

$GNGSA,A,3,67,69,,,,,,,,,,,2.88,1.74,2.29*1B

$GPGSV,3,1,12,05,02,080,,10,31,270,21,13,30,048,20,15,63,073,27*7D

$GPGSV,3,2,12,16,01,278,,20,57,285,21,21,81,278,28,24,20,136,13*73

$GPGSV,3,3,12,27,23,314,23,29,15,185,19,46,27,225,,51,36,199,*70

$GLGSV,2,1,08,67,38,041,13,68,73,293,,69,27,244,21,76,10,027,*6F

$GLGSV,2,2,08,77,09,078,,82,30,166,18,83,76,220,,84,33,326,20*69

$GNGLL,4458.17342,N,09331.04877,W,203647.20,A,A*69

$GNRMC,203647.40,A,4458.17352,N,09331.04872,W,1.385,,120919,,,A*7F

$GNVTG,,T,,M,1.385,N,2.566,K,A*35

$GNGGA,203647.40,4458.17352,N,09331.04872,W,1,07,1.74,293.8,M,-30.7,M,,*72

$GNGSA,A,3,21,15,10,20,27,,,,,,,,2.88,1.74,2.29*14

$GNGSA,A,3,67,69,,,,,,,,,,,2.88,1.74,2.29*1B

$GPGSV,3,1,12,05,02,080,,10,31,270,21,13,30,048,19,15,63,073,27*77

$GPGSV,3,2,12,16,01,278,,20,57,285,21,21,81,278,28,24,20,136,13*73

$GPGSV,3,3,12,27,23,314,23,29,15,185,19,46,27,225,,51,36,199,*70

$GLGSV,2,1,08,67,38,041,12,68,73,293,,69,27,244,20,76,10,027,*6F

$GLGSV,2,2,08,77,09,078,,82,30,166,19,83,76,220,,84,33,326,21*69

$GNGLL,4458.17352,N,09331.04872,W,203647.40,A,A*6B

$GNRMC,203647.60,A,4458.17353,N,09331.04866,W,0.128,,120919,,,A*7D

$GNVTG,,T,,M,0.128,N,0.238,K,A*3F

$GNGGA,203647.60,4458.17353,N,09331.04866,W,1,07,1.74,293.7,M,-30.7,M,,*7B

$GNGSA,A,3,21,15,10,20,27,,,,,,,,2.88,1.74,2.29*14

$GNGSA,A,3,67,69,,,,,,,,,,,2.88,1.74,2.29*1B

$GPGSV,3,1,12,05,02,080,,10,31,270,21,13,30,048,20,15,63,073,28*72

$GPGSV,3,2,12,16,01,278,,20,57,285,21,21,81,278,28,24,20,136,13*73

$GPGSV,3,3,12,27,23,314,23,29,15,185,19,46,27,225,,51,36,199,*70

$GLGSV,2,1,08,67,38,041,12,68,73,293,,69,27,244,20,76,10,027,*6F

$GLGSV,2,2,08,77,09,078,,82,30,166,18,83,76,220,,84,33,326,20*69

$GNGLL,4458.17353,N,09331.04866,W,203647.60,A,A*6D

$GNRMC,203647.80,A,4458.17346,N,09331.04862,W,1.351,,120919,,,A*7E

$GNVTG,,T,,M,1.351,N,2.501,K,A*3D

$GNGGA,203647.80,4458.17346,N,09331.04862,W,1,07,1.74,293.5,M,-30.7,M,,*77

$GNGSA,A,3,21,15,10,20,27,,,,,,,,2.88,1.74,2.29*14

$GNGSA,A,3,67,69,,,,,,,,,,,2.88,1.74,2.29*1B

$GPGSV,3,1,12,05,02,080,,10,31,270,21,13,30,048,20,15,63,073,28*72

$GPGSV,3,2,12,16,01,278,,20,57,285,21,21,81,278,28,24,20,136,13*73

$GPGSV,3,3,12,27,23,314,23,29,15,185,19,46,27,225,,51,36,199,*70

$GLGSV,2,1,08,67,38,041,12,68,73,293,,69,27,244,20,76,10,027,*6F

$GLGSV,2,2,08,77,09,078,,82,30,166,19,83,76,220,,84,33,326,20*68

$GNGLL,4458.17346,N,09331.04862,W,203647.80,A,A*63

$GNRMC,203648.00,A,4458.17340,N,09331.04860,W,2.732,,120919,,,A*7F

$GNVTG,,T,,M,2.732,N,5.059,K,A*30

$GNGGA,203648.00,4458.17340,N,09331.04860,W,1,07,1.74,293.5,M,-30.7,M,,*74

$GNGSA,A,3,21,15,10,20,27,,,,,,,,2.88,1.74,2.29*14

$GNGSA,A,3,67,69,,,,,,,,,,,2.88,1.74,2.29*1B

$GPGSV,3,1,12,05,02,080,,10,31,270,21,13,30,048,20,15,63,073,28*72

$GPGSV,3,2,12,16,01,278,,20,57,285,21,21,81,278,28,24,20,136,13*73

$GPGSV,3,3,12,27,23,314,23,29,15,185,19,46,27,225,,51,36,199,*70

$GLGSV,2,1,08,67,38,041,12,68,73,293,,69,27,244,20,76,10,027,*6F

$GLGSV,2,2,08,77,09,078,,82,30,166,19,83,76,220,,84,33,326,20*68

$GNGLL,4458.17340,N,09331.04860,W,203648.00,A,A*60

$GNRMC,203648.20,A,4458.17338,N,09331.04854,W,0.555,,120919,,,A*74

$GNVTG,,T,,M,0.555,N,1.029,K,A*32

$GNGGA,203648.20,4458.17338,N,09331.04854,W,1,07,1.74,293.4,M,-30.7,M,,*7F

$GNTXT,01,01,01,NMEA unknown msg*46

$GNGSA,A,3,21,15,10,20,27,,,,,,,,2.88,1.74,2.29*14

$GNGSA,A,3,67,69,,,,,,,,,,,2.88,1.74,2.29*1B

$GPGSV,3,1,12,05,02,080,,10,31,270,22,13,30,048,20,15,63,073,28*71

$GPGSV,3,2,12,16,01,278,,20,57,285,20,21,81,278,28,24,20,136,13*72

$GPGSV,3,3,12,27,23,314,23,29,15,185,19,46,27,225,,51,36,199,*70

$GLGSV,2,1,08,67,38,041,12,68,73,293,,69,27,244,20,76,10,027,*6F

$GLGSV,2,2,08,77,09,078,,82,30,166,19,83,76,220,,84,33,326,20*68

$GNGLL,4458.17338,N,09331.04854,W,203648.20,A,A*6A

$GNRMC,203648.40,A,4458.17348,N,09331.04856,W,1.094,,120919,,,A*7E

$GNVTG,,T,,M,1.094,N,2.026,K,A*37

$GNGGA,203648.40,4458.17348,N,09331.04856,W,1,07,1.74,293.5,M,-30.7,M,,*7D

$GNGSA,A,3,21,15,10,20,27,,,,,,,,2.88,1.74,2.29*14

$GNGSA,A,3,67,69,,,,,,,,,,,2.88,1.74,2.29*1B

$GPGSV,3,1,12,05,02,080,,10,31,270,22,13,30,048,20,15,63,073,28*71

$GPGSV,3,2,12,16,01,278,,20,57,285,20,21,81,278,28,24,20,136,13*72

$GPGSV,3,3,12,27,23,314,23,29,15,185,19,46,27,225,,51,36,199,*70

$GLGSV,2,1,08,67,38,041,12,68,73,293,,69,27,244,20,76,10,027,*6F

$GLGSV,2,2,08,77,09,078,,82,30,166,19,83,76,220,,84,33,326,20*68

$GNGLL,4458.17348,N,09331.04856,W,203648.40,A,A*69

$GNRMC,203648.60,A,4458.17354,N,09331.04855,W,0.880,,120919,,,A*7E

$GNVTG,,T,,M,0.880,N,1.631,K,A*38

$GNGGA,203648.60,4458.17354,N,09331.04855,W,1,07,1.74,293.5,M,-30.7,M,,*71

$GNGSA,A,3,21,15,10,20,27,,,,,,,,2.88,1.74,2.29*14

$GNGSA,A,3,67,69,,,,,,,,,,,2.88,1.74,2.29*1B

$GPGSV,3,1,12,05,02,080,,10,31,270,21,13,30,048,20,15,63,073,28*72

$GPGSV,3,2,12,16,01,278,,20,57,285,20,21,81,278,28,24,20,136,13*72

$GPGSV,3,3,12,27,23,314,23,29,15,185,19,46,27,225,,51,36,199,*70

$GLGSV,2,1,08,67,38,041,12,68,73,293,,69,27,244,20,76,10,027,*6F

$GLGSV,2,2,08,77,09,078,,82,30,166,19,83,76,219,,84,33,326,20*62

$GNGLL,4458.17354,N,09331.04855,W,203648.60,A,A*65

$GNRMC,203648.80,A,4458.17348,N,09331.04861,W,2.269,,120919,,,A*75

$GNVTG,,T,,M,2.269,N,4.202,K,A*36

$GNGGA,203648.80,4458.17348,N,09331.04861,W,1,07,1.74,293.4,M,-30.7,M,,*74

$GNGSA,A,3,21,15,10,20,27,,,,,,,,2.88,1.74,2.29*14

$GNGSA,A,3,67,69,,,,,,,,,,,2.88,1.74,2.29*1B

$GPGSV,3,1,12,05,02,080,,10,31,270,21,13,30,048,20,15,63,073,28*72

$GPGSV,3,2,12,16,01,278,,20,57,285,20,21,81,278,28,24,20,136,13*72

$GPGSV,3,3,12,27,23,314,23,29,15,185,19,46,27,225,,51,36,199,*70

$GLGSV,2,1,08,67,38,041,12,68,73,293,,69,27,244,20,76,10,027,*6F

$GLGSV,2,2,08,77,09,078,,82,30,166,19,83,76,219,,84,33,326,20*62

$GNGLL,4458.17348,N,09331.04861,W,203648.80,A,A*61

$GNRMC,203649.00,A,4458.17348,N,09331.04866,W,0.840,,120919,,,A*78

$GNVTG,,T,,M,0.840,N,1.556,K,A*36

$GNGGA,203649.00,4458.17348,N,09331.04866,W,1,07,1.74,293.4,M,-30.7,M,,*7A

$GNGSA,A,3,21,15,10,20,27,,,,,,,,2.88,1.74,2.29*14

$GNGSA,A,3,67,69,,,,,,,,,,,2.88,1.74,2.29*1B

$GPGSV,3,1,12,05,02,080,,10,31,270,22,13,30,048,20,15,63,073,28*71

$GPGSV,3,2,12,16,01,278,,20,57,285,20,21,81,278,28,24,20,136,14*75

$GPGSV,3,3,12,27,23,314,23,29,15,185,19,46,27,225,,51,36,199,*70

$GLGSV,2,1,08,67,38,041,12,68,73,293,,69,27,244,20,76,10,027,*6F

$GLGSV,2,2,08,77,09,078,,82,30,166,18,83,76,219,,84,33,326,21*62

$GNGLL,4458.17348,N,09331.04866,W,203649.00,A,A*6F

$GNTXT,01,01,01,NMEA unknown msg*46

$GNRMC,203649.20,A,4458.17340,N,09331.04866,W,2.128,,120919,,,A*77

$GNVTG,,T,,M,2.128,N,3.941,K,A*3B

$GNGGA,203649.20,4458.17340,N,09331.04866,W,1,07,1.74,293.3,M,-30.7,M,,*77

$GNGSA,A,3,21,15,10,20,27,,,,,,,,2.88,1.74,2.29*14

$GNGSA,A,3,67,69,,,,,,,,,,,2.88,1.74,2.29*1B

$GPGSV,3,1,12,05,02,080,,10,31,270,22,13,30,048,20,15,63,073,28*71

$GPGSV,3,2,12,16,01,278,,20,57,285,20,21,81,278,28,24,20,136,14*75

$GPGSV,3,3,12,27,23,314,23,29,15,185,19,46,27,225,,51,36,199,*70

$GLGSV,2,1,08,67,38,041,12,68,73,293,,69,27,244,20,76,10,027,*6F

$GLGSV,2,2,08,77,09,078,,82,30,166,18,83,76,219,,84,33,326,21*62

$GNGLL,4458.17340,N,09331.04866,W,203649.20,A,A*65

$GNRMC,203649.40,A,4458.17339,N,09331.04866,W,0.928,,120919,,,A*75

$GNVTG,,T,,M,0.928,N,1.719,K,A*30

$GNGGA,203649.40,4458.17339,N,09331.04866,W,1,07,1.74,293.3,M,-30.7,M,,*7F

$GNGSA,A,3,21,15,10,20,27,,,,,,,,2.88,1.74,2.29*14

$GNGSA,A,3,67,69,,,,,,,,,,,2.88,1.74,2.29*1B

$GPGSV,3,1,12,05,02,080,,10,31,270,22,13,30,048,20,15,63,073,28*71

$GPGSV,3,2,12,16,01,278,,20,57,285,20,21,81,278,28,24,20,136,14*75

$GPGSV,3,3,12,27,23,314,23,29,15,185,19,46,27,225,,51,36,199,*70

$GLGSV,2,1,08,67,38,041,11,68,73,293,,69,27,244,20,76,10,027,*6C

$GLGSV,2,2,08,77,09,078,,82,30,166,19,83,76,219,,84,33,326,21*63

$GNGLL,4458.17339,N,09331.04866,W,203649.40,A,A*6D

$GNRMC,203649.60,A,4458.17346,N,09331.04871,W,0.276,,120919,,,A*79

$GNVTG,,T,,M,0.276,N,0.512,K,A*38

$GNGGA,203649.60,4458.17346,N,09331.04871,W,1,07,1.74,293.4,M,-30.7,M,,*74

$GNGSA,A,3,21,15,10,20,27,,,,,,,,2.88,1.74,2.29*14

$GNGSA,A,3,67,69,,,,,,,,,,,2.88,1.74,2.29*1B

$GPGSV,3,1,12,05,02,080,,10,31,270,22,13,30,048,20,15,63,073,28*71

$GPGSV,3,2,12,16,01,278,,20,57,285,20,21,81,278,28,24,20,136,14*75

$GPGSV,3,3,12,27,23,314,23,29,15,185,19,46,27,225,,51,36,199,*70

$GLGSV,2,1,08,67,38,041,12,68,73,293,,69,27,244,20,76,10,027,*6F

$GLGSV,2,2,08,77,09,078,,82,30,166,19,83,76,219,,84,33,326,21*63

$GNGLL,4458.17346,N,09331.04871,W,203649.60,A,A*61

$GNRMC,203649.80,A,4458.17355,N,09331.04875,W,0.228,,120919,,,A*7A

$GNVTG,,T,,M,0.228,N,0.423,K,A*30

$GNGGA,203649.80,4458.17355,N,09331.04875,W,1,07,1.74,293.5,M,-30.7,M,,*7D

$GNGSA,A,3,21,15,10,20,27,,,,,,,,2.88,1.74,2.29*14

$GNGSA,A,3,67,69,,,,,,,,,,,2.88,1.74,2.29*1B

$GPGSV,3,1,12,05,02,080,,10,31,270,22,13,30,048,20,15,63,073,28*71

$GPGSV,3,2,12,16,01,278,,20,57,285,20,21,81,278,28,24,20,136,15*74

$GPGSV,3,3,12,27,23,314,23,29,15,185,19,46,27,225,,51,36,199,*70

$GLGSV,2,1,08,67,38,041,12,68,73,293,,69,27,244,20,76,10,027,*6F

$GLGSV,2,2,08,77,09,078,,82,30,166,18,83,76,219,,84,33,326,21*62

$GNGLL,4458.17355,N,09331.04875,W,203649.80,A,A*69

$GNRMC,203650.00,A,4458.17357,N,09331.04873,W,0.664,,120919,,,A*72

$GNVTG,,T,,M,0.664,N,1.230,K,A*39

$GNGGA,203650.00,4458.17357,N,09331.04873,W,1,07,1.74,293.6,M,-30.7,M,,*7A

$GNGSA,A,3,21,15,10,20,27,,,,,,,,2.88,1.74,2.29*14

$GNGSA,A,3,67,69,,,,,,,,,,,2.88,1.74,2.29*1B

$GPGSV,3,1,12,05,02,080,,10,31,270,22,13,30,048,20,15,63,073,28*71

$GPGSV,3,2,12,16,01,278,,20,57,285,20,21,81,278,28,24,20,136,15*74

$GNTXT,01,01,01,NMEA unknown msg*46

$GPGSV,3,3,12,27,23,314,23,29,15,185,19,46,27,225,,51,36,199,*70

$GLGSV,2,1,08,67,38,041,13,68,73,293,,69,27,244,20,76,10,027,*6E

$GLGSV,2,2,08,77,09,078,,82,30,166,18,83,76,219,,84,33,326,21*62

$GNGLL,4458.17357,N,09331.04873,W,203650.00,A,A*6D

$GNRMC,203650.20,A,4458.17365,N,09331.04863,W,1.533,,120919,,,A*70

$GNVTG,,T,,M,1.533,N,2.838,K,A*38

$GNGGA,203650.20,4458.17365,N,09331.04863,W,1,07,1.74,293.5,M,-30.7,M,,*7B

$GNGSA,A,3,21,15,10,20,27,,,,,,,,2.88,1.74,2.29*14

$GNGSA,A,3,67,69,,,,,,,,,,,2.88,1.74,2.29*1B

$GPGSV,3,1,12,05,02,080,,10,31,270,22,13,30,048,20,15,63,073,27*7E

$GPGSV,3,2,12,16,01,278,,20,57,285,20,21,81,278,28,24,20,136,15*74

$GPGSV,3,3,12,27,23,314,23,29,15,185,19,46,27,225,,51,36,199,*70

$GLGSV,2,1,08,67,38,041,13,68,73,293,,69,27,244,20,76,10,027,*6E

$GLGSV,2,2,08,77,09,078,,82,30,166,18,83,76,219,,84,33,326,21*62

$GNGLL,4458.17365,N,09331.04863,W,203650.20,A,A*6F

$GNRMC,203650.40,A,4458.17380,N,09331.04850,W,2.784,,120919,,,A*70

$GNVTG,,T,,M,2.784,N,5.157,K,A*32

$GNGGA,203650.40,4458.17380,N,09331.04850,W,1,07,1.74,293.5,M,-30.7,M,,*76

$GNGSA,A,3,21,15,10,20,27,,,,,,,,2.88,1.74,2.29*14

$GNGSA,A,3,67,69,,,,,,,,,,,2.88,1.74,2.29*1B

$GPGSV,3,1,12,05,02,080,,10,31,270,22,13,30,048,20,15,63,073,27*7E

$GPGSV,3,2,12,16,01,278,,20,57,285,20,21,81,278,28,24,20,136,15*74

$GPGSV,3,3,12,27,23,314,23,29,15,185,19,46,27,225,,51,36,199,*70

$GLGSV,2,1,08,67,38,041,13,68,73,293,,69,27,244,20,76,10,027,*6E

$GLGSV,2,2,08,77,09,078,,82,30,166,17,83,76,219,,84,33,326,21*6D

$GNGLL,4458.17380,N,09331.04850,W,203650.40,A,A*62

$GNRMC,203650.60,A,4458.17384,N,09331.04840,W,0.092,,120919,,,A*75

$GNVTG,,T,,M,0.092,N,0.171,K,A*31

$GNGGA,203650.60,4458.17384,N,09331.04840,W,1,07,1.74,293.4,M,-30.7,M,,*70

$GNGSA,A,3,21,15,10,20,27,,,,,,,,2.88,1.74,2.29*14

$GNGSA,A,3,67,69,,,,,,,,,,,2.88,1.74,2.29*1B

$GPGSV,3,1,12,05,02,080,,10,31,270,22,13,30,048,20,15,63,073,28*71

$GPGSV,3,2,12,16,01,278,,20,57,285,20,21,81,278,28,24,20,136,15*74

$GPGSV,3,3,12,27,23,314,23,29,15,185,19,46,27,225,,51,36,199,*70

$GLGSV,2,1,08,67,38,041,13,68,73,293,,69,27,244,20,76,10,027,*6E

$GLGSV,2,2,08,77,09,078,,82,30,166,18,83,76,219,,84,33,326,21*62

$GNGLL,4458.17384,N,09331.04840,W,203650.60,A,A*65

$GNRMC,203650.80,A,4458.17381,N,09331.04833,W,0.835,,120919,,,A*7F

$GNVTG,,T,,M,0.835,N,1.546,K,A*35

$GNGGA,203650.80,4458.17381,N,09331.04833,W,1,07,1.74,293.2,M,-30.7,M,,*79

$GNGSA,A,3,21,15,10,20,27,,,,,,,,2.88,1.74,2.29*14

$GNGSA,A,3,67,69,,,,,,,,,,,2.88,1.74,2.29*1B

$GPGSV,3,1,12,05,02,080,,10,31,270,22,13,30,048,20,15,63,073,28*71

$GPGSV,3,2,12,16,01,278,,20,57,285,20,21,81,278,28,24,20,136,16*77

$GPGSV,3,3,12,27,23,314,23,29,15,185,19,46,27,225,,51,36,199,*70

$GLGSV,2,1,08,67,38,041,12,68,73,293,,69,27,244,20,76,10,027,*6F

$GLGSV,2,2,08,77,09,078,,82,30,166,18,83,76,219,,84,33,326,21*62

$GNGLL,4458.17381,N,09331.04833,W,203650.80,A,A*6A

$GNRMC,203651.00,A,4458.17381,N,09331.04828,W,0.498,,120919,,,A*77

$GNVTG,,T,,M,0.498,N,0.923,K,A*30

$GNGGA,203651.00,4458.17381,N,09331.04828,W,1,07,1.74,293.2,M,-30.7,M,,*7A

$GNGSA,A,3,21,15,10,20,27,,,,,,,,2.88,1.74,2.29*14

$GNGSA,A,3,67,69,,,,,,,,,,,2.88,1.74,2.29*1B

$GPGSV,3,1,12,05,02,080,,10,31,270,22,13,30,048,20,15,63,073,28*71

$GPGSV,3,2,12,16,01,278,,20,57,285,20,21,81,278,28,24,20,136,16*77

$GPGSV,3,3,12,27,23,314,23,29,15,185,19,46,27,225,,51,36,199,*70

$GLGSV,2,1,08,67,38,041,12,68,73,293,,69,27,244,20,76,10,027,*6F

$GLGSV,2,2,08,77,09,078,,82,30,166,18,83,76,219,,84,33,326,21*62

$GNGLL,4458.17381,N,09331.04828,W,203651.00,A,A*69

$GNRMC,203651.20,A,4458.17388,N,09331.04827,W,1.021,,120919,,,A*74

$GNVTG,,T,,M,1.021,N,1.891,K,A*3E

$GNGGA,203651.20,4458.17388,N,09331.04827,W,1,07,1.74,293.2,M,-30.7,M,,*7E

$GNGSA,A,3,21,15,10,20,27,,,,,,,,2.88,1.74,2.29*14

$GNGSA,A,3,67,69,,,,,,,,,,,2.88,1.74,2.29*1B

$GPGSV,3,1,12,05,02,080,,10,31,270,22,13,30,048,19,15,63,073,28*7B

$GPGSV,3,2,12,16,01,278,,20,57,285,20,21,81,278,28,24,20,136,16*77

$GPGSV,3,3,12,27,23,314,23,29,15,185,19,46,27,225,,51,36,199,*70

$GLGSV,2,1,08,67,38,041,13,68,73,293,,69,27,244,20,76,10,027,*6E

$GLGSV,2,2,08,77,09,078,,82,30,166,18,83,76,219,,84,33,326,21*62

$GNGLL,4458.17388,N,09331.04827,W,203651.20,A,A*6D

$GNRMC,203651.40,A,4458.17400,N,09331.04829,W,1.095,,120919,,,A*74

$GNVTG,,T,,M,1.095,N,2.027,K,A*37

$GNGGA,203651.40,4458.17400,N,09331.04829,W,1,07,1.74,293.3,M,-30.7,M,,*70

$GNGSA,A,3,21,15,10,20,27,,,,,,,,2.88,1.74,2.29*14

$GNGSA,A,3,67,69,,,,,,,,,,,2.88,1.74,2.29*1B

$GPGSV,3,1,12,05,02,080,,10,31,270,22,13,30,048,19,15,63,073,28*7B

$GPGSV,3,2,12,16,01,278,,20,57,285,21,21,81,278,28,24,20,136,16*76

$GPGSV,3,3,12,27,23,314,23,29,15,185,19,46,27,225,,51,36,199,*70

$GLGSV,2,1,08,67,38,041,13,68,73,293,,69,27,244,21,76,10,027,*6F

$GLGSV,2,2,08,77,09,078,,82,30,166,18,83,76,219,,84,33,326,20*63

$GNGLL,4458.17400,N,09331.04829,W,203651.40,A,A*62

$GNRMC,203651.60,A,4458.17404,N,09331.04823,W,1.051,,120919,,,A*70

$GNVTG,,T,,M,1.051,N,1.946,K,A*32

$GNGGA,203651.60,4458.17404,N,09331.04823,W,1,07,1.74,293.3,M,-30.7,M,,*7C

$GNGSA,A,3,21,15,10,20,27,,,,,,,,2.88,1.74,2.29*14

$GNGSA,A,3,67,69,,,,,,,,,,,2.88,1.74,2.29*1B

$GPGSV,3,1,12,05,02,080,,10,31,270,22,13,30,048,19,15,63,073,28*7B

$GPGSV,3,2,12,16,01,278,,20,57,285,21,21,81,278,28,24,20,136,16*76

$GPGSV,3,3,12,27,23,314,23,29,15,185,18,46,27,225,,51,36,199,*71

$GLGSV,2,1,08,67,38,041,13,68,73,293,,69,27,244,20,76,10,027,*6E

$GLGSV,2,2,08,77,09,078,,82,30,166,18,83,76,219,,84,33,326,21*62

$GNGLL,4458.17404,N,09331.04823,W,203651.60,A,A*6E

$GNRMC,203651.80,A,4458.17412,N,09331.04822,W,0.488,,120919,,,A*79

$GNVTG,,T,,M,0.488,N,0.905,K,A*35

$GNGGA,203651.80,4458.17412,N,09331.04822,W,1,07,1.74,293.5,M,-30.7,M,,*72

$GNGSA,A,3,21,15,10,20,27,,,,,,,,2.88,1.74,2.29*14

$GNGSA,A,3,67,69,,,,,,,,,,,2.88,1.74,2.29*1B

$GPGSV,3,1,12,05,02,080,,10,31,270,22,13,30,048,20,15,63,073,27*7E

$GPGSV,3,2,12,16,01,278,,20,57,285,21,21,81,278,28,24,20,136,16*76

$GPGSV,3,3,12,27,23,314,23,29,15,185,18,46,27,225,,51,36,199,*71

$GLGSV,2,1,08,67,38,041,13,68,73,293,,69,27,244,20,76,10,027,*6E

$GLGSV,2,2,08,77,09,078,,82,30,166,18,83,76,219,,84,33,326,21*62

$GNGLL,4458.17412,N,09331.04822,W,203651.80,A,A*66

$GNRMC,203652.00,A,4458.17408,N,09331.04829,W,2.209,,120919,,,A*7F

$GNVTG,,T,,M,2.209,N,4.092,K,A*3B

$GNGGA,203652.00,4458.17408,N,09331.04829,W,1,07,1.74,293.5,M,-30.7,M,,*79

$GNGSA,A,3,21,15,10,20,27,,,,,,,,2.88,1.74,2.29*14

$GNGSA,A,3,67,69,,,,,,,,,,,2.88,1.74,2.29*1B

$GPGSV,3,1,12,05,02,080,,10,31,270,22,13,30,048,20,15,63,073,27*7E

$GPGSV,3,2,12,16,01,278,,20,57,285,21,21,81,278,28,24,20,136,17*77

$GPGSV,3,3,12,27,23,314,23,29,15,185,18,46,27,225,,51,36,199,*71

$GLGSV,2,1,08,67,38,041,13,68,73,293,,69,27,244,20,76,10,027,*6E

$GLGSV,2,2,08,77,09,078,,82,30,166,19,83,76,219,,84,33,326,20*62

$GNGLL,4458.17408,N,09331.04829,W,203652.00,A,A*6D

$GNRMC,203652.20,A,4458.17404,N,09331.04841,W,2.073,,120919,,,A*70

$GNVTG,,T,,M,2.073,N,3.840,K,A*34

$GNGGA,203652.20,4458.17404,N,09331.04841,W,1,07,1.74,293.7,M,-30.7,M,,*7B

$GNGSA,A,3,21,15,10,20,27,,,,,,,,2.88,1.74,2.29*14

$GNGSA,A,3,67,69,,,,,,,,,,,2.88,1.74,2.29*1B

$GPGSV,3,1,12,05,02,080,,10,31,270,22,13,30,048,20,15,63,073,27*7E

$GPGSV,3,2,12,16,01,278,,20,57,285,21,21,81,278,28,24,20,136,17*77

$GPGSV,3,3,12,27,23,314,23,29,15,185,18,46,27,225,,51,36,199,*71

$GLGSV,2,1,08,67,38,041,14,68,73,293,,69,27,244,20,76,10,027,*69

$GLGSV,2,2,08,77,09,078,,82,30,166,19,83,76,219,,84,33,326,20*62

$GNGLL,4458.17404,N,09331.04841,W,203652.20,A,A*6D

$GNRMC,203652.40,A,4458.17400,N,09331.04844,W,1.003,,120919,,,A*73

$GNVTG,,T,,M,1.003,N,1.858,K,A*3B

$GNGGA,203652.40,4458.17400,N,09331.04844,W,1,07,1.74,293.7,M,-30.7,M,,*7C

$GNGSA,A,3,21,15,10,20,27,,,,,,,,2.88,1.74,2.29*14

$GNGSA,A,3,67,69,,,,,,,,,,,2.88,1.74,2.29*1B

$GPGSV,3,1,12,05,02,080,,10,31,270,22,13,30,048,20,15,63,072,27*7F

$GPGSV,3,2,12,16,01,278,,20,57,285,21,21,81,278,28,24,20,136,16*76

$GPGSV,3,3,12,27,23,314,23,29,15,185,17,46,27,225,,51,36,199,*7E

$GLGSV,2,1,08,67,38,041,14,68,73,293,,69,27,244,20,76,10,027,*69

$GLGSV,2,2,08,77,09,078,,82,30,166,19,83,76,219,,84,33,326,20*62

$GNGLL,4458.17400,N,09331.04844,W,203652.40,A,A*6A

$GNRMC,203652.60,A,4458.17395,N,09331.04843,W,1.508,,120919,,,A*73

$GNVTG,,T,,M,1.508,N,2.792,K,A*3F

$GNGGA,203652.60,4458.17395,N,09331.04843,W,1,07,1.74,293.7,M,-30.7,M,,*72

$GNGSA,A,3,21,15,10,20,27,,,,,,,,2.88,1.74,2.29*14

$GNGSA,A,3,67,69,,,,,,,,,,,2.88,1.74,2.29*1B

$GPGSV,3,1,12,05,02,080,,10,31,270,22,13,30,048,20,15,63,072,27*7F

$GPGSV,3,2,12,16,01,278,,20,57,285,21,21,81,278,28,24,20,136,16*76

$GPGSV,3,3,12,27,23,314,23,29,15,185,17,46,27,225,,51,36,199,*7E

$GLGSV,2,1,08,67,38,041,14,68,73,293,,69,27,244,20,76,10,027,*69

$GLGSV,2,2,08,77,09,078,,82,30,166,19,83,76,219,,84,33,326,20*62

$GNGLL,4458.17395,N,09331.04843,W,203652.60,A,A*64

$GNRMC,203652.80,A,4458.17382,N,09331.04838,W,2.250,,120919,,,A*7E

$GNVTG,,T,,M,2.250,N,4.168,K,A*33

$GNGGA,203652.80,4458.17382,N,09331.04838,W,1,07,1.74,293.6,M,-30.7,M,,*77

$GNGSA,A,3,21,15,10,20,27,,,,,,,,2.88,1.74,2.29*14

$GNGSA,A,3,67,69,,,,,,,,,,,2.88,1.74,2.29*1B

$GPGSV,3,1,12,05,02,080,,10,31,270,22,13,30,048,20,15,63,072,27*7F

$GPGSV,3,2,12,16,01,278,,20,57,285,21,21,81,278,28,24,20,136,16*76

$GPGSV,3,3,12,27,23,314,22,29,15,185,18,46,27,225,,51,36,199,*70

$GLGSV,2,1,08,67,38,041,14,68,73,293,,69,27,244,21,76,10,027,*68

$GLGSV,2,2,08,77,09,078,,82,30,166,19,83,76,219,,84,33,326,20*62

$GNGLL,4458.17382,N,09331.04838,W,203652.80,A,A*60

$GNRMC,203653.00,A,4458.17368,N,09331.04839,W,2.645,,120919,,,A*72

$GNVTG,,T,,M,2.645,N,4.899,K,A*34

$GNGGA,203653.00,4458.17368,N,09331.04839,W,1,07,1.74,293.5,M,-30.7,M,,*78

$GNGSA,A,3,21,15,10,20,27,,,,,,,,2.88,1.74,2.29*14

$GNGSA,A,3,67,69,,,,,,,,,,,2.88,1.74,2.29*1B

$GPGSV,3,1,12,05,02,080,,10,31,270,21,13,30,048,20,15,63,072,27*7C

$GPGSV,3,2,12,16,01,278,,20,57,285,21,21,81,278,28,24,20,136,16*76

$GPGSV,3,3,12,27,23,314,22,29,15,185,18,46,27,225,,51,36,199,*70

$GLGSV,2,1,08,67,38,041,14,68,73,293,,69,27,244,21,76,10,027,*68

$GLGSV,2,2,08,77,09,078,,82,30,166,19,83,76,219,,84,33,326,20*62

$GNGLL,4458.17368,N,09331.04839,W,203653.00,A,A*6C

$GNTXT,01,01,01,NMEA unknown msg*46

$GNRMC,203653.20,A,4458.17363,N,09331.04846,W,1.991,,120919,,,A*76

$GNVTG,,T,,M,1.991,N,3.687,K,A*37

$GNGGA,203653.20,4458.17363,N,09331.04846,W,1,07,1.74,293.3,M,-30.7,M,,*7F

$GNGSA,A,3,21,15,10,20,27,,,,,,,,2.88,1.74,2.29*14

$GNGSA,A,3,67,69,,,,,,,,,,,2.88,1.74,2.29*1B

$GPGSV,3,1,12,05,02,080,,10,31,270,21,13,30,048,20,15,63,072,27*7C

$GPGSV,3,2,12,16,01,278,,20,57,285,21,21,81,278,28,24,20,136,15*75

$GPGSV,3,3,12,27,23,314,22,29,15,185,18,46,27,225,,51,36,199,*70

$GLGSV,2,1,08,67,38,041,14,68,73,293,,69,27,244,21,76,10,027,*68

$GLGSV,2,2,08,77,09,078,,82,30,166,19,83,76,219,,84,33,326,20*62

$GNGLL,4458.17363,N,09331.04846,W,203653.20,A,A*6D

$GNRMC,203653.40,A,4458.17361,N,09331.04851,W,0.864,,120919,,,A*7E

$GNVTG,,T,,M,0.864,N,1.599,K,A*33

$GNGGA,203653.40,4458.17361,N,09331.04851,W,1,07,1.74,293.3,M,-30.7,M,,*7D

$GNGSA,A,3,21,15,10,20,27,,,,,,,,2.88,1.74,2.29*14

$GNGSA,A,3,67,69,,,,,,,,,,,2.88,1.74,2.29*1B

$GPGSV,3,1,12,05,02,080,,10,31,270,22,13,30,048,19,15,63,072,27*75

$GPGSV,3,2,12,16,01,278,,20,57,285,21,21,81,278,28,24,20,136,16*76

$GPGSV,3,3,12,27,23,314,23,29,15,185,18,46,27,225,,51,36,199,*71

$GLGSV,2,1,08,67,38,041,14,68,73,293,,69,27,244,21,76,10,027,*68

$GLGSV,2,2,08,77,09,078,,82,30,166,19,83,76,219,,84,33,326,20*62

$GNGLL,4458.17361,N,09331.04851,W,203653.40,A,A*6F

$GNRMC,203653.60,A,4458.17353,N,09331.04852,W,1.697,,120919,,,A*7D

$GNVTG,,T,,M,1.697,N,3.144,K,A*36

$GNGGA,203653.60,4458.17353,N,09331.04852,W,1,07,1.74,293.1,M,-30.7,M,,*7F

$GNGSA,A,3,21,15,10,20,27,,,,,,,,2.88,1.74,2.29*14

$GNGSA,A,3,67,69,,,,,,,,,,,2.88,1.74,2.29*1B

$GPGSV,3,1,12,05,02,080,,10,31,270,22,13,30,048,19,15,63,072,27*75

$GPGSV,3,2,12,16,01,278,,20,57,285,21,21,81,278,28,24,20,136,16*76

$GPGSV,3,3,12,27,23,314,23,29,15,185,18,46,27,225,,51,36,199,*71

$GLGSV,2,1,08,67,38,041,13,68,73,293,,69,27,244,20,76,10,027,*6E

$GLGSV,2,2,08,77,09,078,,82,30,166,19,83,76,219,,84,33,326,20*62

$GNGLL,4458.17353,N,09331.04852,W,203653.60,A,A*6F

$GNRMC,203653.80,A,4458.17345,N,09331.04851,W,1.032,,120919,,,A*7E

$GNVTG,,T,,M,1.032,N,1.911,K,A*35

$GNGGA,203653.80,4458.17345,N,09331.04851,W,1,07,1.74,292.9,M,-30.7,M,,*7C

$GNGSA,A,3,21,15,10,20,27,,,,,,,,2.88,1.74,2.29*14

$GNGSA,A,3,67,69,,,,,,,,,,,2.88,1.74,2.29*1B

$GPGSV,3,1,12,05,02,080,,10,31,270,21,13,30,048,19,15,63,072,27*76

$GPGSV,3,2,12,16,01,278,,20,57,285,20,21,81,278,28,24,20,136,16*77

$GPGSV,3,3,12,27,23,314,23,29,15,185,18,46,27,225,,51,36,199,*71

$GLGSV,2,1,08,67,38,041,13,68,73,293,,69,27,244,20,76,10,027,*6E

$GLGSV,2,2,08,77,09,078,,82,30,166,19,83,76,219,,84,33,326,20*62

$GNGLL,4458.17345,N,09331.04851,W,203653.80,A,A*65

$GNRMC,203654.00,A,4458.17349,N,09331.04853,W,0.274,,120919,,,A*7E

$GNVTG,,T,,M,0.274,N,0.508,K,A*31

$GNGGA,203654.00,4458.17349,N,09331.04853,W,1,07,1.74,293.0,M,-30.7,M,,*75

$GNGSA,A,3,21,15,10,20,27,,,,,,,,2.88,1.74,2.29*14

$GNGSA,A,3,67,69,,,,,,,,,,,2.88,1.74,2.29*1B

$GPGSV,3,1,12,05,02,080,,10,31,270,21,13,30,048,19,15,63,072,28*79

$GPGSV,3,2,12,16,01,278,,20,57,285,21,21,81,278,28,24,20,136,16*76

$GPGSV,3,3,12,27,23,314,22,29,15,185,18,46,27,225,,51,36,199,*70

$GLGSV,2,1,08,67,38,041,13,68,73,293,,69,27,244,20,76,10,027,*6E

$GLGSV,2,2,08,77,09,078,,82,30,166,19,83,76,219,,84,33,326,20*62

$GNGLL,4458.17349,N,09331.04853,W,203654.00,A,A*64

$GNRMC,203654.20,A,4458.17364,N,09331.04854,W,2.098,,120919,,,A*76

$GNVTG,,T,,M,2.098,N,3.886,K,A*3B

$GNGGA,203654.20,4458.17364,N,09331.04854,W,1,07,1.74,293.2,M,-30.7,M,,*7D

$GNGSA,A,3,21,15,10,20,27,,,,,,,,2.88,1.74,2.29*14

$GNGSA,A,3,67,69,,,,,,,,,,,2.88,1.74,2.29*1B

$GPGSV,3,1,12,05,02,080,,10,31,270,21,13,30,048,19,15,63,072,28*79

$GPGSV,3,2,12,16,01,278,,20,57,285,21,21,81,278,28,24,20,136,16*76

$GPGSV,3,3,12,27,23,314,23,29,15,185,18,46,27,225,,51,36,199,*71

$GLGSV,2,1,08,67,38,041,13,68,73,293,,69,27,244,20,76,10,027,*6E

$GLGSV,2,2,08,77,09,078,,82,30,166,19,83,76,219,,84,33,326,20*62

$GNGLL,4458.17364,N,09331.04854,W,203654.20,A,A*6E

$GNRMC,203654.40,A,4458.17367,N,09331.04841,W,1.326,,120919,,,A*72

$GNVTG,,T,,M,1.326,N,2.455,K,A*3D

$GNGGA,203654.40,4458.17367,N,09331.04841,W,1,07,1.74,293.0,M,-30.7,M,,*7E

$GNGSA,A,3,21,15,10,20,27,,,,,,,,2.88,1.74,2.29*14

$GNGSA,A,3,67,69,,,,,,,,,,,2.88,1.74,2.29*1B

$GPGSV,3,1,12,05,02,080,,10,31,270,21,13,30,048,19,15,63,072,28*79

$GPGSV,3,2,12,16,01,278,,20,57,285,21,21,81,278,28,24,20,136,16*76

$GPGSV,3,3,12,27,23,314,23,29,15,185,18,46,27,225,,51,36,199,*71

$GLGSV,2,1,08,67,38,041,14,68,73,293,,69,27,244,20,76,10,027,*69

$GLGSV,2,2,08,77,09,078,,82,30,166,19,83,76,219,,84,33,326,20*62

$GNGLL,4458.17367,N,09331.04841,W,203654.40,A,A*6F

$GNRMC,203654.60,A,4458.17362,N,09331.04830,W,0.296,,120919,,,A*78

$GNVTG,,T,,M,0.296,N,0.548,K,A*39

$GNGGA,203654.60,4458.17362,N,09331.04830,W,1,07,1.74,292.7,M,-30.7,M,,*79

$GNGSA,A,3,21,15,10,20,27,,,,,,,,2.88,1.74,2.29*14

$GNGSA,A,3,67,69,,,,,,,,,,,2.88,1.74,2.29*1B

$GPGSV,3,1,12,05,02,080,,10,31,270,21,13,30,048,19,15,63,072,28*79

$GPGSV,3,2,12,16,01,278,,20,57,285,20,21,81,278,28,24,20,136,16*77

$GPGSV,3,3,12,27,23,314,23,29,15,185,18,46,27,225,,51,36,199,*71

$GLGSV,2,1,08,67,38,041,14,68,73,293,,69,27,244,20,76,10,027,*69

$GLGSV,2,2,08,77,09,078,,82,30,166,19,83,76,219,,84,33,326,19*68

$GNGLL,4458.17362,N,09331.04830,W,203654.60,A,A*6E

$GNRMC,203654.80,A,4458.17365,N,09331.04821,W,1.363,,120919,,,A*7B

$GNVTG,,T,,M,1.363,N,2.525,K,A*3A

